[
  {
    "id": "nci-bethesda",
    "lon": -77.1,
    "lat": 38.98,
    "cat": "research-center",
    "label": "National Cancer Institute (NCI)",
    "sub": "Primary US federal cancer research agency — funds over $6B annually in cancer research; home of TIL therapy pioneer Steven Rosenberg",
    "tier": 1,
    "date": "2018-01-01",
    "base": true,
    "showLabel": true,
    "lastUpdated": "2026-04-13"
  },
  {
    "id": "msk-new-york",
    "lon": -73.96,
    "lat": 40.76,
    "cat": "research-center",
    "label": "Memorial Sloan Kettering Cancer Center",
    "sub": "World's oldest and largest private cancer center; major site for CAR-T clinical trials, TMB biomarker research, and immunotherapy combination trials",
    "tier": 1,
    "date": "2018-01-01",
    "showLabel": true,
    "lastUpdated": "2026-04-13"
  },
  {
    "id": "md-anderson-houston",
    "lon": -95.37,
    "lat": 29.71,
    "cat": "research-center",
    "label": "MD Anderson Cancer Center",
    "sub": "Home institution of Nobel laureate James Allison; ranked #1 US cancer center; major site for immunotherapy and leukemia research",
    "tier": 1,
    "date": "2018-01-01",
    "showLabel": true,
    "lastUpdated": "2026-04-13"
  },
  {
    "id": "dana-farber-boston",
    "lon": -71.11,
    "lat": 42.33,
    "cat": "research-center",
    "label": "Dana-Farber Cancer Institute",
    "sub": "Harvard-affiliated institute; led pivotal trials in leukemia, lymphoma, and mRNA cancer vaccines; key site for KEYNOTE-522 TNBC trial",
    "tier": 1,
    "date": "2018-01-01",
    "lastUpdated": "2026-04-13"
  },
  {
    "id": "upenn-philadelphia",
    "lon": -75.19,
    "lat": 39.95,
    "cat": "research-center",
    "label": "University of Pennsylvania — Center for Cellular Immunotherapies",
    "sub": "Birthplace of CAR-T cell therapy; Carl June's lab pioneered tisagenlecleucel (Kymriah); site of first CRISPR-edited T-cell cancer trial",
    "tier": 1,
    "date": "2018-01-01",
    "showLabel": true,
    "lastUpdated": "2026-04-13"
  },
  {
    "id": "stanford-cancer-institute",
    "lon": -122.17,
    "lat": 37.44,
    "cat": "research-center",
    "label": "Stanford Cancer Institute",
    "sub": "Leading AI and solid-tumor CAR-T research; Crystal Mackall's lab developing next-generation CAR-T for solid tumors; Sybil AI lung cancer risk model",
    "tier": 1,
    "date": "2018-01-01",
    "lastUpdated": "2026-04-13"
  },
  {
    "id": "fred-hutch-seattle",
    "lon": -122.33,
    "lat": 47.65,
    "cat": "research-center",
    "label": "Fred Hutchinson Cancer Center",
    "sub": "Pioneer in bone marrow transplantation and CAR-T therapy; key site for Breyanzi (lisocabtagene maraleucel) trials; conducts NCI-funded cooperative group trials",
    "tier": 1,
    "date": "2018-01-01",
    "lastUpdated": "2026-04-13"
  },
  {
    "id": "fda-silver-spring",
    "lon": -77.03,
    "lat": 39.01,
    "cat": "regulatory",
    "label": "FDA — Center for Biologics Evaluation (CBER)",
    "sub": "Primary US regulator for CAR-T and cell/gene therapies; approved all 7 CAR-T products, TIL therapy Amtagvi, and multiple AI diagnostic tools since 2018",
    "tier": 1,
    "date": "2018-01-01",
    "showLabel": true,
    "lastUpdated": "2026-04-13"
  },
  {
    "id": "biontech-mainz",
    "lon": 8.27,
    "lat": 49.99,
    "cat": "trial-site",
    "label": "BioNTech Headquarters — Mainz, Germany",
    "sub": "Developed mRNA COVID vaccines with Pfizer; running personalized mRNA cancer vaccine program BNT111 (melanoma) and BNT113 (HPV+ head & neck cancer) in Phase 2 trials",
    "tier": 1,
    "date": "2018-01-01",
    "showLabel": true,
    "lastUpdated": "2026-04-13"
  },
  {
    "id": "moderna-cambridge-ma",
    "lon": -71.10,
    "lat": 42.36,
    "cat": "trial-site",
    "label": "Moderna Inc. — Cambridge, MA",
    "sub": "Developer of mRNA-4157/V940 personalized cancer vaccine in partnership with MSD; Phase 3 KEYNOTE-942 trial ongoing in melanoma; expanding to NSCLC and other tumors",
    "tier": 1,
    "date": "2018-01-01",
    "showLabel": true,
    "lastUpdated": "2026-04-13"
  },
  {
    "id": "dkfz-heidelberg",
    "lon": 8.67,
    "lat": 49.42,
    "cat": "research-center",
    "label": "German Cancer Research Center (DKFZ)",
    "sub": "Germany's largest biomedical research institution; major center for cancer epigenomics, AI pathology, and bispecific antibody development",
    "tier": 1,
    "date": "2018-01-01",
    "lastUpdated": "2026-04-13"
  },
  {
    "id": "cambridge-cancer-uk",
    "lon": 0.13,
    "lat": 52.21,
    "cat": "research-center",
    "label": "Cancer Research UK Cambridge Institute",
    "sub": "Major UK centre for liquid biopsy (ctDNA) research, AI-assisted cancer diagnostics, and translational immunotherapy trials in partnership with Addenbrooke's Hospital",
    "tier": 1,
    "date": "2018-01-01",
    "lastUpdated": "2026-04-13"
  },
  {
    "id": "institut-curie-paris",
    "lon": 2.35,
    "lat": 48.84,
    "cat": "research-center",
    "label": "Institut Curie — Paris",
    "sub": "France's leading cancer research and treatment center; active in breast cancer ADC trials, immunotherapy, and precision oncology programs",
    "tier": 1,
    "date": "2018-01-01",
    "lastUpdated": "2026-04-13"
  },
  {
    "id": "ema-amsterdam",
    "lon": 4.90,
    "lat": 52.37,
    "cat": "regulatory",
    "label": "European Medicines Agency (EMA)",
    "sub": "EU regulator that approved Kymriah, Yescarta, Carvykti, and other CAR-T therapies in Europe; harmonizes approval timelines with FDA on oncology breakthrough therapies",
    "tier": 1,
    "date": "2018-01-01",
    "showLabel": true,
    "lastUpdated": "2026-04-13"
  },
  {
    "id": "karolinska-stockholm",
    "lon": 18.03,
    "lat": 59.37,
    "cat": "research-center",
    "label": "Karolinska Institutet — Stockholm",
    "sub": "Home institution of 2018 Nobel Committee; major research in CAR-T optimization, tumor microenvironment, and cancer genomics; hosts Tasuku Honjo's Nobel lecture",
    "tier": 1,
    "date": "2018-10-01",
    "lastUpdated": "2026-04-13"
  },
  {
    "id": "ncc-japan-tokyo",
    "lon": 139.73,
    "lat": 35.66,
    "cat": "research-center",
    "label": "National Cancer Center Japan — Tokyo",
    "sub": "Japan's flagship cancer research institution; home institution of Tasuku Honjo's former collaborators; major immuno-oncology and gastric cancer research site",
    "tier": 1,
    "date": "2018-01-01",
    "lastUpdated": "2026-04-13"
  },
  {
    "id": "samsung-medical-seoul",
    "lon": 127.08,
    "lat": 37.49,
    "cat": "treatment-hub",
    "label": "Samsung Medical Center — Seoul, South Korea",
    "sub": "Asia's largest CAR-T cell therapy program outside China; runs local manufacturing for Kymriah; active in gastric, lung, and colorectal cancer immunotherapy trials",
    "tier": 2,
    "date": "2020-01-01",
    "lastUpdated": "2026-04-13"
  },
  {
    "id": "peter-maccallum-melbourne",
    "lon": 144.96,
    "lat": -37.80,
    "cat": "research-center",
    "label": "Peter MacCallum Cancer Centre — Melbourne",
    "sub": "Australia's only specialist cancer hospital and research center; globally known for melanoma treatment excellence; major site for adjuvant immunotherapy trials in the Pacific",
    "tier": 1,
    "date": "2018-01-01",
    "lastUpdated": "2026-04-13"
  },
  {
    "id": "nci-milan",
    "lon": 9.22,
    "lat": 45.46,
    "cat": "breakthrough",
    "label": "Istituto Nazionale dei Tumori — Milan",
    "sub": "Key ESMO 2022 DESTINY-Breast04 trial enrollment site; Italy's national cancer research institute and major European ADC and immunotherapy trial hub",
    "tier": 1,
    "date": "2022-08-05",
    "lastUpdated": "2026-04-13"
  },
  {
    "id": "tata-memorial-mumbai",
    "lon": 72.84,
    "lat": 18.99,
    "cat": "treatment-hub",
    "label": "Tata Memorial Hospital — Mumbai",
    "sub": "India's premier cancer center; treats over 75,000 new cancer patients annually; key voice on access equity in CAR-T and immunotherapy; government-supported generic oncology access program",
    "tier": 1,
    "date": "2018-01-01",
    "lastUpdated": "2026-04-13"
  },
  {
    "id": "inca-rio-de-janeiro",
    "lon": -43.18,
    "lat": -22.91,
    "cat": "treatment-hub",
    "label": "INCA — National Cancer Institute Brazil",
    "sub": "Brazil's national cancer institute; conducts LATAM-wide clinical trials; expanding access to immunotherapy through SUS (public health system); major tropical oncology research hub",
    "tier": 2,
    "date": "2018-01-01",
    "lastUpdated": "2026-04-13"
  },
  {
    "id": "kyoto-university-honjo",
    "lon": 135.76,
    "lat": 35.03,
    "cat": "breakthrough",
    "label": "Kyoto University — PD-1 Discovery Site",
    "sub": "Laboratory of Tasuku Honjo (2018 Nobel co-laureate) where PD-1 was discovered in 1992, laying the foundation for modern checkpoint immunotherapy including nivolumab (Opdivo) and pembrolizumab (Keytruda)",
    "tier": 1,
    "date": "2018-10-01",
    "showLabel": true,
    "lastUpdated": "2026-04-13"
  }
]
