[
  {
    "id": "giza-pyramids",
    "lon": 31.13,
    "lat": 29.97,
    "cat": "ancient-site",
    "label": "Giza Pyramid Complex",
    "sub": "Great Pyramid of Khufu (2560 BCE), Khafre, Menkaure & the Great Sphinx. UNESCO World Heritage Site.",
    "tier": 1,
    "date": "0001-01-01",
    "showLabel": true,
    "lastUpdated": "2026-04-25"
  },
  {
    "id": "saqqara-necropolis",
    "lon": 31.22,
    "lat": 29.87,
    "cat": "ancient-site",
    "label": "Saqqara Necropolis",
    "sub": "Step Pyramid of Djoser (2650 BCE) — world's first monumental stone structure, built by architect Imhotep.",
    "tier": 1,
    "date": "0001-01-01",
    "lastUpdated": "2026-04-25"
  },
  {
    "id": "karnak-temple",
    "lon": 32.66,
    "lat": 25.72,
    "cat": "ancient-site",
    "label": "Karnak Temple Complex",
    "sub": "Largest ancient religious site in the world, built continuously from Middle Kingdom through Ptolemaic era. Dedicated to Amun-Ra.",
    "tier": 1,
    "date": "0001-01-01",
    "lastUpdated": "2026-04-25"
  },
  {
    "id": "valley-of-kings",
    "lon": 32.60,
    "lat": 25.74,
    "cat": "ancient-site",
    "label": "Valley of the Kings",
    "sub": "New Kingdom royal necropolis — 63 tombs including Tutankhamun (KV62) and Ramesses II. West Bank, Luxor.",
    "tier": 1,
    "date": "0001-01-01",
    "lastUpdated": "2026-04-25"
  },
  {
    "id": "abu-simbel",
    "lon": 31.63,
    "lat": 22.34,
    "cat": "ancient-site",
    "label": "Abu Simbel Temples",
    "sub": "Twin rock-cut temples of Ramesses II and Nefertari (~1264 BCE). UNESCO-relocated 1968 to save from Aswan reservoir flooding.",
    "tier": 1,
    "date": "0001-01-01",
    "lastUpdated": "2026-04-25"
  },
  {
    "id": "abydos-temple",
    "lon": 31.92,
    "lat": 26.18,
    "cat": "ancient-site",
    "label": "Abydos — City of Osiris",
    "sub": "Sacred city and royal burial ground from predynastic through Ramesside era. Temple of Seti I contains iconic king list.",
    "tier": 1,
    "date": "0001-01-01",
    "lastUpdated": "2026-04-25"
  },
  {
    "id": "amarna-city",
    "lon": 30.90,
    "lat": 27.65,
    "cat": "ancient-site",
    "label": "Amarna (Akhetaten)",
    "sub": "Short-lived capital of Akhenaten's monotheistic revolution (~1346–1332 BCE). Abandoned after his death and deliberately erased.",
    "tier": 1,
    "date": "0001-01-01",
    "lastUpdated": "2026-04-25"
  },
  {
    "id": "philae-temple",
    "lon": 32.88,
    "lat": 24.02,
    "cat": "ancient-site",
    "label": "Philae Temple (Temple of Isis)",
    "sub": "Ptolemaic-era temple complex on island in Nile, UNESCO-relocated to Agilkia Island. Last site of active ancient Egyptian religion (~400 CE).",
    "tier": 1,
    "date": "0001-01-01",
    "lastUpdated": "2026-04-25"
  },
  {
    "id": "dendera-temple",
    "lon": 32.67,
    "lat": 26.14,
    "cat": "ancient-site",
    "label": "Dendera Temple Complex",
    "sub": "Temple of Hathor, largely built in Ptolemaic and Roman periods. Contains famous zodiac ceiling now in the Louvre.",
    "tier": 1,
    "date": "0001-01-01",
    "lastUpdated": "2026-04-25"
  },
  {
    "id": "edfu-temple",
    "lon": 32.87,
    "lat": 24.98,
    "cat": "ancient-site",
    "label": "Edfu Temple (Temple of Horus)",
    "sub": "Best-preserved ancient Egyptian temple, Ptolemaic period (237–57 BCE). Dedicated to Horus, with vivid mythological reliefs.",
    "tier": 1,
    "date": "0001-01-01",
    "lastUpdated": "2026-04-25"
  },
  {
    "id": "cairo-city",
    "lon": 31.24,
    "lat": 30.06,
    "cat": "political-center",
    "label": "Cairo — al-Qahira",
    "sub": "Founded 969 CE by Fatimid general Jawhar. Modern capital of Egypt, population ~22 million. Home of al-Azhar University and the Egyptian Museum.",
    "tier": 1,
    "date": "0969-01-01",
    "showLabel": true,
    "lastUpdated": "2026-04-25"
  },
  {
    "id": "alexandria-city",
    "lon": 29.92,
    "lat": 31.20,
    "cat": "political-center",
    "label": "Alexandria",
    "sub": "Founded 331 BCE by Alexander the Great. Ancient world's intellectual capital — home to the Great Library and Pharos Lighthouse. Today Egypt's second city.",
    "tier": 1,
    "date": "0001-01-01",
    "showLabel": true,
    "lastUpdated": "2026-04-25"
  },
  {
    "id": "memphis-mit-rahina",
    "lon": 31.25,
    "lat": 29.85,
    "cat": "political-center",
    "label": "Memphis (Mit Rahina)",
    "sub": "Ancient capital founded by Narmer (~3100 BCE). Remained Egypt's most important city for most of pharaonic history. UNESCO World Heritage site.",
    "tier": 1,
    "date": "0001-01-01",
    "lastUpdated": "2026-04-25"
  },
  {
    "id": "luxor-thebes",
    "lon": 32.64,
    "lat": 25.70,
    "cat": "political-center",
    "label": "Luxor / Ancient Thebes",
    "sub": "Capital of the New Kingdom pharaohs. 'City of a Hundred Gates' (Homer). Today a city of 500,000 surrounded by ancient monuments.",
    "tier": 1,
    "date": "0001-01-01",
    "lastUpdated": "2026-04-25"
  },
  {
    "id": "aswan-city",
    "lon": 32.90,
    "lat": 24.09,
    "cat": "political-center",
    "label": "Aswan",
    "sub": "Ancient Elephantine island trade hub; site of the Aswan High Dam (completed 1970) that transformed Egyptian agriculture and electricity.",
    "tier": 1,
    "date": "1970-01-15",
    "lastUpdated": "2026-04-25"
  },
  {
    "id": "aswan-high-dam",
    "lon": 32.88,
    "lat": 23.97,
    "cat": "infrastructure",
    "label": "Aswan High Dam",
    "sub": "Completed 1970 with Soviet aid. Controls Nile flooding, irrigates 4M feddans, generates 2.1 GW electricity. Created Lake Nasser — displaced 90,000 Nubians.",
    "tier": 1,
    "date": "1970-07-21",
    "lastUpdated": "2026-04-25"
  },
  {
    "id": "suez-canal-ismailia",
    "lon": 32.28,
    "lat": 30.59,
    "cat": "infrastructure",
    "label": "Suez Canal — Ismailia",
    "sub": "193 km canal opened 1869 connecting Mediterranean to Red Sea. Nationalized 1956 by Nasser. Carries ~12% of global trade. Expanded 2015.",
    "tier": 1,
    "date": "1869-11-17",
    "showLabel": true,
    "lastUpdated": "2026-04-25"
  },
  {
    "id": "port-said",
    "lon": 32.27,
    "lat": 31.26,
    "cat": "infrastructure",
    "label": "Port Said",
    "sub": "Northern entrance to Suez Canal. Scene of Anglo-French landing in Suez Crisis (1956). Key commercial port.",
    "tier": 2,
    "date": "1869-11-17",
    "lastUpdated": "2026-04-25"
  },
  {
    "id": "new-administrative-capital",
    "lon": 31.80,
    "lat": 30.00,
    "cat": "political-center",
    "label": "New Administrative Capital",
    "sub": "Mega-city project announced 2015, 45 km east of Cairo. $58 billion development to host all government ministries. Partially operational from 2021.",
    "tier": 2,
    "date": "2021-12-01",
    "lastUpdated": "2026-04-25"
  },
  {
    "id": "tahrir-square",
    "lon": 31.24,
    "lat": 30.04,
    "cat": "protest",
    "label": "Tahrir Square",
    "sub": "Epicenter of the 2011 Egyptian Revolution (Jan 25–Feb 11). Millions camped here demanding Mubarak's removal. Symbol of the Arab Spring.",
    "tier": 1,
    "date": "2011-01-25",
    "lastUpdated": "2026-04-25"
  },
  {
    "id": "raba-a-square",
    "lon": 31.34,
    "lat": 30.07,
    "cat": "protest",
    "label": "Raba'a al-Adawiya Square",
    "sub": "Site of August 14, 2013 security forces dispersal of pro-Morsi sit-in. HRW estimates 817+ killed. Symbol of Sisi crackdown on Brotherhood.",
    "tier": 1,
    "date": "2013-08-14",
    "lastUpdated": "2026-04-25"
  },
  {
    "id": "sinai-peninsula",
    "lon": 33.50,
    "lat": 29.50,
    "cat": "conflict-zone",
    "label": "Sinai Peninsula",
    "sub": "Occupied by Israel 1967–1982; returned under Camp David. Active insurgency since 2013 — Sinai Province (IS affiliate) conducts attacks on Egyptian military.",
    "tier": 1,
    "date": "2013-07-01",
    "lastUpdated": "2026-04-25"
  },
  {
    "id": "rafah-border",
    "lon": 34.24,
    "lat": 31.28,
    "cat": "conflict-zone",
    "label": "Rafah Border Crossing",
    "sub": "Egypt–Gaza crossing. Critical humanitarian gateway during Gaza conflicts. Egypt mediates between Hamas and Israel. Crossed by hundreds of thousands of Gazans since October 2023.",
    "tier": 1,
    "date": "2023-10-07",
    "lastUpdated": "2026-04-25"
  },
  {
    "id": "cairo-citadel",
    "lon": 31.26,
    "lat": 30.03,
    "cat": "political-center",
    "label": "Cairo Citadel",
    "sub": "Medieval fortress built by Saladin (1176–1183 CE). Ottoman administrative center; Muhammad Ali Mosque (1848). Site of 1811 Mamluk massacre.",
    "tier": 1,
    "date": "1176-01-01",
    "lastUpdated": "2026-04-25"
  },
  {
    "id": "suez-city",
    "lon": 32.55,
    "lat": 29.97,
    "cat": "conflict-zone",
    "label": "Suez City",
    "sub": "Site of 1956 Suez Crisis Anglo-French landing and fierce 1973 October War battles. Southern entrance to Suez Canal.",
    "tier": 2,
    "date": "1956-11-05",
    "lastUpdated": "2026-04-25"
  }
]
