[
  {
    "id": "jakarta_capital",
    "lon": 106.8456,
    "lat": -6.2088,
    "cat": "political",
    "label": "Jakarta (Batavia)",
    "sub": "Capital city; established as Batavia by VOC in 1619, renamed Jakarta at independence. Population ~10M city, 34M metro. Sinking 25cm/year.",
    "tier": 1,
    "date": "1619-05-30",
    "base": true,
    "showLabel": true,
    "lastUpdated": "2026-04-25"
  },
  {
    "id": "nusantara_ikn",
    "lon": 116.7174,
    "lat": -1.0866,
    "cat": "political",
    "label": "Nusantara (New Capital)",
    "sub": "Indonesia's designated new national capital in East Kalimantan. $32B project, Law No. 3/2022. Phase 1 government buildings partially operational 2024.",
    "tier": 1,
    "date": "2022-03-14",
    "showLabel": true,
    "lastUpdated": "2026-04-25"
  },
  {
    "id": "yogyakarta_sultanate",
    "lon": 110.3688,
    "lat": -7.7956,
    "cat": "historical",
    "label": "Yogyakarta",
    "sub": "Royal Sultanate city; Republican capital during independence war 1945–49. Diponegoro War base 1825–30. Cultural heart of Javanese civilization.",
    "tier": 1,
    "date": "1755-02-13",
    "showLabel": true,
    "lastUpdated": "2026-04-25"
  },
  {
    "id": "borobudur_temple",
    "lon": 110.2038,
    "lat": -7.6077,
    "cat": "historical",
    "label": "Borobudur",
    "sub": "World's largest Buddhist temple (c.800 AD), UNESCO World Heritage Site 1991. Built by Sailendra dynasty in central Java. Major Hindu-Buddhist heritage site.",
    "tier": 1,
    "date": "0825-01-01",
    "lastUpdated": "2026-04-25"
  },
  {
    "id": "prambanan_temple",
    "lon": 110.4914,
    "lat": -7.7520,
    "cat": "historical",
    "label": "Prambanan",
    "sub": "9th-century Hindu temple compound, largest Hindu temple in Indonesia, UNESCO World Heritage Site. Dedicated to Trimurti (Brahma, Vishnu, Shiva).",
    "tier": 1,
    "date": "0850-01-01",
    "lastUpdated": "2026-04-25"
  },
  {
    "id": "trowulan_majapahit",
    "lon": 112.3997,
    "lat": -7.5497,
    "cat": "historical",
    "label": "Trowulan (Majapahit Capital)",
    "sub": "Site of the Majapahit Empire capital (1293–1527), East Java. Archaeological park with temples, royal baths, and the Bajang Ratu gate. UNESCO tentative list.",
    "tier": 1,
    "date": "1293-01-01",
    "lastUpdated": "2026-04-25"
  },
  {
    "id": "surabaya_heroes",
    "lon": 112.7508,
    "lat": -7.2575,
    "cat": "independence",
    "label": "Surabaya",
    "sub": "Site of the Battle of Surabaya, November 10, 1945 — Indonesia's defining independence battle (Heroes' Day). Second largest city; major industrial and commercial hub.",
    "tier": 1,
    "date": "1945-11-10",
    "showLabel": true,
    "lastUpdated": "2026-04-25"
  },
  {
    "id": "bandung_conference_site",
    "lon": 107.6191,
    "lat": -6.9175,
    "cat": "political",
    "label": "Bandung",
    "sub": "Site of the 1955 Asian-African Bandung Conference, founding moment of the Non-Aligned Movement. Gedung Merdeka (Freedom Building) hosted 29 nations.",
    "tier": 1,
    "date": "1955-04-18",
    "showLabel": true,
    "lastUpdated": "2026-04-25"
  },
  {
    "id": "palembang_srivijaya",
    "lon": 104.7458,
    "lat": -2.9761,
    "cat": "historical",
    "label": "Palembang (Srivijaya)",
    "sub": "Capital of the Srivijaya Buddhist maritime empire (7th–13th centuries), controlling Strait of Malacca trade. Now South Sumatra's provincial capital.",
    "tier": 1,
    "date": "0683-01-01",
    "lastUpdated": "2026-04-25"
  },
  {
    "id": "banda_aceh_conflict",
    "lon": 95.3222,
    "lat": 5.5477,
    "cat": "conflict",
    "label": "Banda Aceh",
    "sub": "Capital of Aceh province; site of 29-year GAM independence conflict (1976–2005). Devastated by 2004 tsunami (130,000+ dead in Aceh). Helsinki Peace Accord 2005.",
    "tier": 1,
    "date": "1976-12-04",
    "lastUpdated": "2026-04-25"
  },
  {
    "id": "jayapura_papua",
    "lon": 140.7181,
    "lat": -2.5337,
    "cat": "conflict",
    "label": "Jayapura (West Papua)",
    "sub": "Capital of Papua province (formerly Irian Jaya). Administered by Indonesia since 1963 New York Agreement. OPM independence movement ongoing. Papuan Special Autonomy since 2001.",
    "tier": 1,
    "date": "1963-05-01",
    "showLabel": true,
    "lastUpdated": "2026-04-25"
  },
  {
    "id": "dili_east_timor",
    "lon": 125.5735,
    "lat": -8.5569,
    "cat": "independence",
    "label": "Dili (Timor-Leste)",
    "sub": "Capital of Timor-Leste; occupied by Indonesia 1975–1999. Santa Cruz massacre 1991 (250+ killed). Independence referendum 1999 (78.5% for independence). Full independence May 20, 2002.",
    "tier": 1,
    "date": "1991-11-12",
    "lastUpdated": "2026-04-25"
  },
  {
    "id": "ambon_maluku",
    "lon": 128.1779,
    "lat": -3.6879,
    "cat": "conflict",
    "label": "Ambon (Maluku)",
    "sub": "Site of the 1999–2002 Maluku communal violence (Muslim-Christian conflict), ~5,000 killed, 500,000 displaced. Former VOC spice trade center; Nutmeg Islands nearby.",
    "tier": 1,
    "date": "1999-01-19",
    "lastUpdated": "2026-04-25"
  },
  {
    "id": "ternate_spice",
    "lon": 127.3667,
    "lat": 0.7833,
    "cat": "historical",
    "label": "Ternate (Spice Islands)",
    "sub": "Historical center of the global clove trade; the Sultanate of Ternate was one of the richest polities in pre-colonial Southeast Asia. Portuguese and later VOC battled for control of the Moluccas clove monopoly.",
    "tier": 2,
    "date": "1511-01-01",
    "lastUpdated": "2026-04-25"
  },
  {
    "id": "makassar_hub",
    "lon": 119.4221,
    "lat": -5.1477,
    "cat": "economic",
    "label": "Makassar (Sulawesi)",
    "sub": "Capital of South Sulawesi; gateway to eastern Indonesia. Major port for nickel and agricultural exports. Site of the Sultanate of Gowa, historically the most powerful state in eastern Indonesia.",
    "tier": 1,
    "date": "1945-08-17",
    "lastUpdated": "2026-04-25"
  },
  {
    "id": "medan_sumatra",
    "lon": 98.6722,
    "lat": 3.5952,
    "cat": "economic",
    "label": "Medan (North Sumatra)",
    "sub": "Third largest city in Indonesia; economic capital of Sumatra. Major hub for palm oil, rubber, tobacco exports. Ethnically diverse: Batak, Malay, Chinese, Tamil communities.",
    "tier": 1,
    "date": "1945-08-17",
    "lastUpdated": "2026-04-25"
  },
  {
    "id": "timika_grasberg",
    "lon": 136.8800,
    "lat": -4.5400,
    "cat": "economic",
    "label": "Timika / Grasberg Mine",
    "sub": "Site of the Grasberg mine — world's largest gold mine and third-largest copper mine, operated by Freeport-McMoRan and PT Freeport Indonesia. Government acquired 51% stake in 2018. Revenues central to Papua development but also to corruption allegations.",
    "tier": 1,
    "date": "1973-01-01",
    "lastUpdated": "2026-04-25"
  },
  {
    "id": "batam_ftz",
    "lon": 104.0305,
    "lat": 1.0456,
    "cat": "economic",
    "label": "Batam Island (Free Trade Zone)",
    "sub": "Indonesian island adjacent to Singapore, designated as a Free Trade Zone. Industrial manufacturing hub for electronics and shipbuilding. Part of the Indonesia-Malaysia-Singapore Growth Triangle.",
    "tier": 2,
    "date": "1978-01-01",
    "lastUpdated": "2026-04-25"
  },
  {
    "id": "bali_bombings_kuta",
    "lon": 115.1687,
    "lat": -8.7202,
    "cat": "conflict",
    "label": "Kuta, Bali (Bombings 2002)",
    "sub": "Site of the October 12, 2002 Bali bombings by Jemaah Islamiyah: 202 killed (88 Australian), the deadliest terrorist attack in Indonesian history. A second attack hit Jimbaran and Kuta on October 1, 2005, killing 23.",
    "tier": 1,
    "date": "2002-10-12",
    "lastUpdated": "2026-04-25"
  },
  {
    "id": "madiun_pki",
    "lon": 111.5236,
    "lat": -7.6298,
    "cat": "historical",
    "label": "Madiun (PKI Affair 1948)",
    "sub": "Site of the 1948 PKI Madiun Affair, in which communist forces briefly declared a Soviet-backed government before being crushed by TNI forces loyal to Sukarno. The conflict created enduring Army-PKI enmity that exploded in the 1965 killings.",
    "tier": 2,
    "date": "1948-09-18",
    "lastUpdated": "2026-04-25"
  },
  {
    "id": "tanjung_priok_port",
    "lon": 106.8800,
    "lat": -6.1000,
    "cat": "conflict",
    "label": "Tanjung Priok (1984 Massacre)",
    "sub": "Site of the September 12, 1984 Tanjung Priok massacre, in which security forces killed 24–100+ Muslim protesters. Indonesia's main port; critical to trade logistics.",
    "tier": 1,
    "date": "1984-09-12",
    "lastUpdated": "2026-04-25"
  },
  {
    "id": "solo_surakarta",
    "lon": 110.8313,
    "lat": -7.5560,
    "cat": "historical",
    "label": "Solo (Surakarta)",
    "sub": "Ancient Mataram Sultanate city, split by Dutch in 1755. Birthplace of Joko Widodo (Jokowi), 7th President. Center of Javanese batik and court culture. Solo Batik inscribed UNESCO Intangible Heritage.",
    "tier": 1,
    "date": "1755-02-13",
    "lastUpdated": "2026-04-25"
  },
  {
    "id": "pontianak_kalimantan",
    "lon": 109.3255,
    "lat": 0.0263,
    "cat": "political",
    "label": "Pontianak (West Kalimantan)",
    "sub": "Capital of West Kalimantan province, situated exactly on the equator. Major port city for Borneo agricultural exports. Site of ethnic violence between Madurese and Dayak communities in 1999–2001.",
    "tier": 2,
    "date": "1945-08-17",
    "lastUpdated": "2026-04-25"
  },
  {
    "id": "manado_sulawesi",
    "lon": 124.8421,
    "lat": 1.4748,
    "cat": "political",
    "label": "Manado (North Sulawesi)",
    "sub": "Capital of North Sulawesi province; predominantly Christian city, known for religious harmony. Gateway to Bunaken Marine Park. PERMESTA regional rebellion was based here in 1957.",
    "tier": 2,
    "date": "1945-08-17",
    "lastUpdated": "2026-04-25"
  },
  {
    "id": "biak_west_papua",
    "lon": 135.9800,
    "lat": -1.1800,
    "cat": "conflict",
    "label": "Biak (West Papua)",
    "sub": "Strategic island in West Papua; site of the July 1998 Biak Massacre in which Indonesian security forces killed at least 100 Papuans who had raised the Morning Star flag. Major OPM (Free Papua Movement) activity.",
    "tier": 2,
    "date": "1998-07-06",
    "lastUpdated": "2026-04-25"
  }
]
