[
  {
    "id": "teutoburg-forest-battle",
    "lon": 8.13,
    "lat": 52.42,
    "cat": "military-site",
    "label": "Teutoburg Forest",
    "sub": "Battle of Teutoburg Forest (9 CE) — Arminius destroys three Roman legions, halting Roman expansion into Germania",
    "tier": 2,
    "date": "0009-09-09",
    "lastUpdated": "2026-04-25"
  },
  {
    "id": "aachen-charlemagne-capital",
    "lon": 6.08,
    "lat": 50.77,
    "cat": "political-event",
    "label": "Aachen (Carolingian Capital)",
    "sub": "Capital of Charlemagne's Frankish Empire (768–814); site of coronation of Holy Roman Emperors until 1531",
    "tier": 2,
    "date": "0800-12-25",
    "base": true,
    "showLabel": true,
    "lastUpdated": "2026-04-25"
  },
  {
    "id": "wittenberg-reformation",
    "lon": 12.65,
    "lat": 51.87,
    "cat": "cultural-landmark",
    "label": "Wittenberg — Reformation",
    "sub": "Martin Luther posts 95 Theses on Castle Church door (October 31, 1517), sparking the Protestant Reformation",
    "tier": 2,
    "date": "1517-10-31",
    "showLabel": true,
    "lastUpdated": "2026-04-25"
  },
  {
    "id": "worms-diet-1521",
    "lon": 8.36,
    "lat": 49.63,
    "cat": "political-event",
    "label": "Worms — Diet of Worms",
    "sub": "Diet of Worms (1521): Luther refuses to recant before Emperor Charles V — 'Here I stand, I can do no other'",
    "tier": 2,
    "date": "1521-04-17",
    "lastUpdated": "2026-04-25"
  },
  {
    "id": "augsburg-peace-1555",
    "lon": 10.90,
    "lat": 48.37,
    "cat": "political-event",
    "label": "Augsburg — Peace 1555",
    "sub": "Peace of Augsburg (1555): first legal recognition of Lutheranism in HRE — 'cuius regio, eius religio' principle",
    "tier": 2,
    "date": "1555-09-25",
    "lastUpdated": "2026-04-25"
  },
  {
    "id": "munster-westphalia-peace",
    "lon": 7.63,
    "lat": 51.96,
    "cat": "political-event",
    "label": "Münster — Peace of Westphalia",
    "sub": "Peace of Westphalia (1648) ends Thirty Years War; establishes modern nation-state system and German religious pluralism",
    "tier": 2,
    "date": "1648-10-24",
    "showLabel": true,
    "lastUpdated": "2026-04-25"
  },
  {
    "id": "potsdam-sanssouci",
    "lon": 13.06,
    "lat": 52.40,
    "cat": "political-event",
    "label": "Potsdam — Frederick the Great",
    "sub": "Sans-Souci Palace: residence of Frederick II (the Great) of Prussia, who ruled 1740–1786; site of 1945 Potsdam Conference",
    "tier": 2,
    "date": "1745-05-01",
    "lastUpdated": "2026-04-25"
  },
  {
    "id": "leipzig-battle-of-nations",
    "lon": 12.37,
    "lat": 51.34,
    "cat": "military-site",
    "label": "Leipzig — Battle of Nations",
    "sub": "Battle of Leipzig (October 1813): Napoleon decisively defeated by Coalition — largest land battle in European history until WWI",
    "tier": 2,
    "date": "1813-10-16",
    "lastUpdated": "2026-04-25"
  },
  {
    "id": "frankfurt-parliament-1848",
    "lon": 8.68,
    "lat": 50.11,
    "cat": "reform-movement",
    "label": "Frankfurt — 1848 Parliament",
    "sub": "Frankfurt Parliament (Paulskirchenparlament, 1848): first freely elected all-German assembly; attempt at liberal unification fails",
    "tier": 2,
    "date": "1848-05-18",
    "showLabel": true,
    "lastUpdated": "2026-04-25"
  },
  {
    "id": "versailles-hall-of-mirrors-1871",
    "lon": 13.41,
    "lat": 52.52,
    "cat": "political-event",
    "label": "German Empire Proclaimed 1871",
    "sub": "German Empire proclaimed in Hall of Mirrors, Versailles (January 18, 1871) after Franco-Prussian War victory; Bismarck as Chancellor",
    "tier": 2,
    "date": "1871-01-18",
    "lastUpdated": "2026-04-25"
  },
  {
    "id": "berlin-reichstag",
    "lon": 13.38,
    "lat": 52.52,
    "cat": "political-event",
    "label": "Berlin — Reichstag/Bundestag",
    "sub": "Germany's parliament since 1894; burned 1933 (enabling Hitler's emergency powers); remodeled by Norman Foster 1999 as reunified Bundestag",
    "tier": 1,
    "date": "1894-12-05",
    "base": true,
    "showLabel": true,
    "lastUpdated": "2026-04-25"
  },
  {
    "id": "kiel-mutiny-1918",
    "lon": 10.13,
    "lat": 54.32,
    "cat": "reform-movement",
    "label": "Kiel — Sailors' Mutiny 1918",
    "sub": "Kiel Mutiny (November 3, 1918): German sailors refuse suicidal naval battle, triggering German Revolution and Kaiser Wilhelm II's abdication",
    "tier": 2,
    "date": "1918-11-03",
    "lastUpdated": "2026-04-25"
  },
  {
    "id": "weimar-republic-founding",
    "lon": 11.33,
    "lat": 50.98,
    "cat": "political-event",
    "label": "Weimar — Republic Founded",
    "sub": "Weimar Republic's National Assembly convenes (January 1919); Germany's first democratic constitution adopted in this cultural capital",
    "tier": 2,
    "date": "1919-02-06",
    "showLabel": true,
    "lastUpdated": "2026-04-25"
  },
  {
    "id": "munich-beer-hall-putsch",
    "lon": 11.58,
    "lat": 48.14,
    "cat": "political-event",
    "label": "Munich — Beer Hall Putsch",
    "sub": "Beer Hall Putsch (November 8–9, 1923): Hitler's failed coup attempt; 16 Nazis and 4 police killed; Hitler imprisoned and writes Mein Kampf",
    "tier": 2,
    "date": "1923-11-08",
    "lastUpdated": "2026-04-25"
  },
  {
    "id": "nuremberg-rally-grounds",
    "lon": 11.08,
    "lat": 49.45,
    "cat": "political-event",
    "label": "Nuremberg — NSDAP Rallies",
    "sub": "Annual Nazi Party rallies 1933–1938; Nuremberg Laws (1935) enacted here stripping Jews of citizenship; Nuremberg Trials 1945–1946",
    "tier": 2,
    "date": "1935-09-15",
    "showLabel": true,
    "lastUpdated": "2026-04-25"
  },
  {
    "id": "wannsee-conference-site",
    "lon": 13.18,
    "lat": 52.43,
    "cat": "military-site",
    "label": "Wannsee — Holocaust Conference",
    "sub": "Wannsee Conference (January 20, 1942): senior Nazi officials coordinate the 'Final Solution' — systematic murder of European Jews",
    "tier": 2,
    "date": "1942-01-20",
    "lastUpdated": "2026-04-25"
  },
  {
    "id": "berlin-brandenburger-tor",
    "lon": 13.38,
    "lat": 52.52,
    "cat": "cultural-landmark",
    "label": "Brandenburg Gate",
    "sub": "Symbol of German division (1961–1989) and reunification; Reagan's 'tear down this wall' speech 1987; Wall falls November 9, 1989",
    "tier": 2,
    "date": "1989-11-09",
    "showLabel": true,
    "lastUpdated": "2026-04-25"
  },
  {
    "id": "checkpoint-charlie",
    "lon": 13.39,
    "lat": 52.51,
    "cat": "border-change",
    "label": "Checkpoint Charlie",
    "sub": "Main Allied crossing point through Berlin Wall (1961–1989); site of October 1961 US–USSR tank standoff; demolished June 1990",
    "tier": 2,
    "date": "1961-08-13",
    "lastUpdated": "2026-04-25"
  },
  {
    "id": "berlin-wall-east-side",
    "lon": 13.44,
    "lat": 52.50,
    "cat": "border-change",
    "label": "Berlin Wall (East Side Gallery)",
    "sub": "1,316 km of inner German border built August 1961; longest preserved section at East Side Gallery; last major section demolished 1990",
    "tier": 2,
    "date": "1961-08-13",
    "lastUpdated": "2026-04-25"
  },
  {
    "id": "bonn-west-german-capital",
    "lon": 7.10,
    "lat": 50.73,
    "cat": "political-event",
    "label": "Bonn — West German Capital",
    "sub": "Capital of FRG 1949–1991; seat of Bundestag, Federal Chancellery; 'provisional capital' that became permanent until reunification",
    "tier": 2,
    "date": "1949-05-23",
    "lastUpdated": "2026-04-25"
  },
  {
    "id": "hamburg-hanseatic-port",
    "lon": 9.99,
    "lat": 53.55,
    "cat": "cultural-landmark",
    "label": "Hamburg — Hanseatic Port",
    "sub": "Key member of Hanseatic League (13th–17th centuries); Germany's largest port; still styled 'Free and Hanseatic City of Hamburg'",
    "tier": 2,
    "date": "1241-05-01",
    "showLabel": true,
    "lastUpdated": "2026-04-25"
  },
  {
    "id": "heidelberg-university",
    "lon": 8.69,
    "lat": 49.41,
    "cat": "cultural-landmark",
    "label": "Heidelberg — Oldest University",
    "sub": "Ruprecht-Karls-Universität (founded 1386), Germany's oldest university; center of German Romanticism and academic tradition",
    "tier": 2,
    "date": "1386-10-18",
    "lastUpdated": "2026-04-25"
  },
  {
    "id": "dresden-historic-center",
    "lon": 13.74,
    "lat": 51.05,
    "cat": "military-site",
    "label": "Dresden — Allied Bombing 1945",
    "sub": "Dresden firebombed February 13–15, 1945; approx. 25,000 killed (German commission 2010); Frauenkirche rebuilt and reconsecrated 2005",
    "tier": 2,
    "date": "1945-02-13",
    "lastUpdated": "2026-04-25"
  },
  {
    "id": "cologne-cathedral-rhineland",
    "lon": 6.96,
    "lat": 50.94,
    "cat": "cultural-landmark",
    "label": "Cologne — Cathedral & Rhineland",
    "sub": "Cologne Cathedral (begun 1248, completed 1880): UNESCO site; Rhineland occupied by France post-WWI (1919–1930) and post-WWII",
    "tier": 2,
    "date": "1248-08-15",
    "lastUpdated": "2026-04-25"
  },
  {
    "id": "erfurt-sbd-founding",
    "lon": 11.03,
    "lat": 50.98,
    "cat": "reform-movement",
    "label": "Erfurt — SPD & Luther",
    "sub": "Augustine monastery where Luther became a monk (1505); SPD Erfurt Programme adopted 1891 establishing Marxist platform",
    "tier": 2,
    "date": "1891-10-14",
    "lastUpdated": "2026-04-25"
  },
  {
    "id": "regensburg-medieval-diet",
    "lon": 12.10,
    "lat": 49.02,
    "cat": "political-event",
    "label": "Regensburg — Imperial Diet",
    "sub": "Regensburg hosted the Perpetual Imperial Diet (Immerwährender Reichstag) 1663–1806 — permanent parliament of the Holy Roman Empire",
    "tier": 2,
    "date": "1663-01-01",
    "lastUpdated": "2026-04-25"
  },
  {
    "id": "wilhelmshaven-naval-base",
    "lon": 8.11,
    "lat": 53.53,
    "cat": "military-site",
    "label": "Wilhelmshaven — Naval Base",
    "sub": "Germany's main naval base; Kaiser Wilhelm II's High Seas Fleet based here during WWI; site of 1918 Sailors' Mutiny origins; remains major Bundeswehr naval base",
    "tier": 2,
    "date": "1869-06-17",
    "lastUpdated": "2026-04-25"
  },
  {
    "id": "buchenwald-concentration-camp",
    "lon": 11.25,
    "lat": 51.02,
    "cat": "military-site",
    "label": "Buchenwald — Concentration Camp",
    "sub": "Nazi concentration camp near Weimar (1937–1945): over 56,000 prisoners killed; among first camps liberated by US Army (April 11, 1945)",
    "tier": 2,
    "date": "1937-07-15",
    "lastUpdated": "2026-04-25"
  },
  {
    "id": "berlin-holocaust-memorial",
    "lon": 13.38,
    "lat": 52.51,
    "cat": "cultural-landmark",
    "label": "Berlin — Holocaust Memorial",
    "sub": "Memorial to Murdered Jews of Europe (opened May 2005): 2,711 concrete stelae; adjacent to Brandenburg Gate; architect Peter Eisenman",
    "tier": 1,
    "date": "2005-05-10",
    "lastUpdated": "2026-04-25"
  },
  {
    "id": "kohl-chancellery-bonn",
    "lon": 7.12,
    "lat": 50.72,
    "cat": "political-event",
    "label": "Bonn — Federal Chancellery",
    "sub": "Site of reunification diplomacy (1989–1990) and Kohl government 1982–1998; German government's operational seat until full Berlin move 1999",
    "tier": 2,
    "date": "1949-09-15",
    "lastUpdated": "2026-04-25"
  },
  {
    "id": "berlin-alexanderplatz-gdr-protests",
    "lon": 13.41,
    "lat": 52.52,
    "cat": "reform-movement",
    "label": "East Berlin — Alexanderplatz Demo",
    "sub": "November 4, 1989: 500,000 people rally at Alexanderplatz — largest demonstration in GDR history; Wall falls 5 days later",
    "tier": 2,
    "date": "1989-11-04",
    "showLabel": true,
    "lastUpdated": "2026-04-25"
  }
]
