[
  {
    "id": "persepolis",
    "lon": 52.89,
    "lat": 29.93,
    "cat": "ancient",
    "label": "Persepolis",
    "sub": "Achaemenid ceremonial capital (518–330 BCE). Construction begun by Darius I; burned by Alexander the Great 330 BCE. UNESCO World Heritage Site.",
    "tier": 1,
    "date": "0518-01-01",
    "base": false,
    "showLabel": true,
    "lastUpdated": "2026-04-25"
  },
  {
    "id": "pasargadae",
    "lon": 53.18,
    "lat": 30.19,
    "cat": "ancient",
    "label": "Pasargadae",
    "sub": "First Achaemenid capital, built by Cyrus the Great (~546 BCE). Contains the Tomb of Cyrus. UNESCO World Heritage Site.",
    "tier": 1,
    "date": "0546-01-01",
    "showLabel": true,
    "lastUpdated": "2026-04-25"
  },
  {
    "id": "susa",
    "lon": 48.25,
    "lat": 32.19,
    "cat": "ancient",
    "label": "Susa (Shush)",
    "sub": "One of the world's oldest cities (4200 BCE). Winter capital of the Achaemenid Empire. UNESCO World Heritage Site 2015.",
    "tier": 1,
    "date": "0521-01-01",
    "showLabel": false,
    "lastUpdated": "2026-04-25"
  },
  {
    "id": "hamadan-ecbatana",
    "lon": 48.52,
    "lat": 34.79,
    "cat": "ancient",
    "label": "Hamadan (Ecbatana)",
    "sub": "Ancient capital of the Medes (~678 BCE). Summer residence of Achaemenid, Parthian and Sassanid kings. Tomb of Esther and Mordechai.",
    "tier": 1,
    "date": "0678-01-01",
    "showLabel": false,
    "lastUpdated": "2026-04-25"
  },
  {
    "id": "isfahan",
    "lon": 51.68,
    "lat": 32.66,
    "cat": "ancient",
    "label": "Isfahan",
    "sub": "Safavid imperial capital (1598–1736). Naqsh-e Jahan Square (UNESCO). Called 'half the world' in Persian proverb; pop. 2.2 million today.",
    "tier": 1,
    "date": "1598-01-01",
    "showLabel": true,
    "lastUpdated": "2026-04-25"
  },
  {
    "id": "tehran",
    "lon": 51.39,
    "lat": 35.69,
    "cat": "political",
    "label": "Tehran",
    "sub": "Capital of Iran since 1796. Seat of the Supreme Leader, President, and Parliament. Golestan Palace (UNESCO). Population ~10 million metro area.",
    "tier": 1,
    "date": "1796-01-01",
    "base": true,
    "showLabel": true,
    "lastUpdated": "2026-04-25"
  },
  {
    "id": "tabriz",
    "lon": 46.30,
    "lat": 38.08,
    "cat": "political",
    "label": "Tabriz",
    "sub": "Historic capital of Iranian Azerbaijan. Bazaar (UNESCO). Major center of the 1906 Constitutional Revolution. Gateway city to Turkey and the Caucasus.",
    "tier": 2,
    "date": "1906-08-05",
    "showLabel": true,
    "lastUpdated": "2026-04-25"
  },
  {
    "id": "mashhad",
    "lon": 59.62,
    "lat": 36.27,
    "cat": "political",
    "label": "Mashhad",
    "sub": "Iran's holiest city. Shrine of Imam Reza (8th Shia Imam). 25+ million pilgrims/year. Capital of Khorasan-e Razavi province.",
    "tier": 1,
    "date": "0818-01-01",
    "showLabel": true,
    "lastUpdated": "2026-04-25"
  },
  {
    "id": "qom",
    "lon": 50.87,
    "lat": 34.64,
    "cat": "political",
    "label": "Qom",
    "sub": "Iran's center of Shia Islamic scholarship. Hundreds of seminaries (hawzas). Khomeini's home base before exile. Fordow nuclear facility 30km north.",
    "tier": 1,
    "date": "1979-04-01",
    "showLabel": false,
    "lastUpdated": "2026-04-25"
  },
  {
    "id": "shiraz",
    "lon": 52.53,
    "lat": 29.59,
    "cat": "ancient",
    "label": "Shiraz",
    "sub": "City of poets and wine. Tombs of Hafez and Sa'di. Gateway to Persepolis (60km). Cultural capital of the Zand dynasty (18th century).",
    "tier": 1,
    "date": "0693-01-01",
    "showLabel": true,
    "lastUpdated": "2026-04-25"
  },
  {
    "id": "natanz-nuclear",
    "lon": 51.73,
    "lat": 33.51,
    "cat": "nuclear",
    "label": "Natanz Enrichment Facility",
    "sub": "Main uranium enrichment site. Underground fuel enrichment plant with 19,000 centrifuges. Targeted by Stuxnet 2010, sabotage 2021. IAEA-monitored.",
    "tier": 1,
    "date": "2003-02-21",
    "showLabel": true,
    "zoneRadius": 5,
    "lastUpdated": "2026-04-25"
  },
  {
    "id": "fordow-nuclear",
    "lon": 51.37,
    "lat": 34.88,
    "cat": "nuclear",
    "label": "Fordow Fuel Enrichment Plant",
    "sub": "Deeply buried (80m underground) enrichment site near Qom. Revealed to IAEA by Iran 2009. JCPOA converted to research center; Iran resumed 20% enrichment 2021.",
    "tier": 1,
    "date": "2009-09-25",
    "showLabel": true,
    "zoneRadius": 3,
    "lastUpdated": "2026-04-25"
  },
  {
    "id": "arak-heavy-water",
    "lon": 49.12,
    "lat": 34.09,
    "cat": "nuclear",
    "label": "Arak Heavy Water Reactor",
    "sub": "IR-40 heavy water research reactor. Plutonium production risk. JCPOA required redesign to eliminate plutonium production pathway. Redesign ongoing.",
    "tier": 1,
    "date": "2004-01-01",
    "showLabel": false,
    "lastUpdated": "2026-04-25"
  },
  {
    "id": "bushehr-nuclear-plant",
    "lon": 50.84,
    "lat": 28.97,
    "cat": "nuclear",
    "label": "Bushehr Nuclear Power Plant",
    "sub": "Iran's only operational nuclear power plant. 1,000 MW. Built with Russian assistance (Rosatom). IAEA-safeguarded. Online since 2011. Civilian use only.",
    "tier": 1,
    "date": "2011-09-12",
    "showLabel": true,
    "lastUpdated": "2026-04-25"
  },
  {
    "id": "isfahan-nuclear-ucf",
    "lon": 51.62,
    "lat": 32.54,
    "cat": "nuclear",
    "label": "Isfahan Nuclear Technology Center / UCF",
    "sub": "Uranium Conversion Facility (UCF). Converts yellowcake to UF6 gas feed for centrifuges. IAEA-monitored. Iran resumed conversion here in 2005 after EU-3 suspension.",
    "tier": 1,
    "date": "2005-08-10",
    "showLabel": false,
    "lastUpdated": "2026-04-25"
  },
  {
    "id": "ahvaz",
    "lon": 48.67,
    "lat": 31.32,
    "cat": "economic",
    "label": "Ahvaz / Khuzestan Province",
    "sub": "Heart of Iran's oil industry. Site of Iran-Iraq War battles (1980–88). Khuzestan produces ~80% of Iran's oil. Major Arab-minority region; separatist tensions.",
    "tier": 1,
    "date": "1980-09-22",
    "showLabel": true,
    "lastUpdated": "2026-04-25"
  },
  {
    "id": "bandar-abbas",
    "lon": 56.27,
    "lat": 27.18,
    "cat": "economic",
    "label": "Bandar Abbas",
    "sub": "Iran's largest port. Strategic location on Strait of Hormuz. Shah Abbas I captured from Portuguese 1622. Major IRGC naval base. Key to oil export and imports.",
    "tier": 1,
    "date": "1622-01-01",
    "showLabel": true,
    "lastUpdated": "2026-04-25"
  },
  {
    "id": "abadan-oil-refinery",
    "lon": 48.31,
    "lat": 30.34,
    "cat": "economic",
    "label": "Abadan Oil Refinery",
    "sub": "Once world's largest oil refinery (British-built, 1909). Nationalized by Mosaddegh 1951. Heavily damaged during Iran-Iraq War siege (1980–82). Rebuilt after 1988.",
    "tier": 1,
    "date": "1951-05-01",
    "showLabel": false,
    "lastUpdated": "2026-04-25"
  },
  {
    "id": "khorramshahr-battle",
    "lon": 48.17,
    "lat": 30.43,
    "cat": "conflict",
    "label": "Khorramshahr ('City of Blood')",
    "sub": "Site of Iran-Iraq War's bloodiest urban battle (Sept–Oct 1980). Iraq captures after 34 days. Iran reconquers in Operation Beit ol-Moqaddas (May 24, 1982). 7,000+ killed.",
    "tier": 1,
    "date": "1982-05-24",
    "showLabel": false,
    "lastUpdated": "2026-04-25"
  },
  {
    "id": "khark-island",
    "lon": 50.32,
    "lat": 29.25,
    "cat": "economic",
    "label": "Khark Island Oil Terminal",
    "sub": "Iran's main crude oil export terminal in the Persian Gulf. Handles ~90% of Iranian oil exports. Repeatedly targeted by Iraq during the 'Tanker War' (1984–88).",
    "tier": 1,
    "date": "1960-01-01",
    "showLabel": false,
    "lastUpdated": "2026-04-25"
  },
  {
    "id": "masjed-soleyman-oil",
    "lon": 49.30,
    "lat": 31.93,
    "cat": "economic",
    "label": "Masjed Soleyman — First Oil Well",
    "sub": "Site of first commercial oil strike in Middle East (May 26, 1908) by British engineer George Reynolds. Launch point of the modern Iranian oil industry and APOC (later BP).",
    "tier": 1,
    "date": "1908-05-26",
    "showLabel": false,
    "lastUpdated": "2026-04-25"
  },
  {
    "id": "yazd-zoroastrian",
    "lon": 54.37,
    "lat": 31.90,
    "cat": "ancient",
    "label": "Yazd — Zoroastrian Center",
    "sub": "Iran's best-preserved ancient city. Home of the largest Zoroastrian community in Iran. Eternal flame at Atashkadeh has burned for 1,500 years. UNESCO World Heritage 2017.",
    "tier": 1,
    "date": "0500-01-01",
    "showLabel": false,
    "lastUpdated": "2026-04-25"
  },
  {
    "id": "chabahar-port",
    "lon": 60.62,
    "lat": 25.29,
    "cat": "economic",
    "label": "Chabahar Port",
    "sub": "Iran's only deep-water port on the Indian Ocean (Gulf of Oman). India-Iran joint development. US sanctions exemption granted 2018–2023. Strategic access to Afghanistan bypassing Pakistan.",
    "tier": 1,
    "date": "2016-05-23",
    "showLabel": false,
    "lastUpdated": "2026-04-25"
  },
  {
    "id": "sanandaj-kurdish",
    "lon": 47.01,
    "lat": 35.31,
    "cat": "conflict",
    "label": "Sanandaj (Kurdistan Province)",
    "sub": "Capital of Kurdistan Province. Site of PJAK (Iranian Kurdish) insurgency. Mahsa Amini's hometown of Saqqez is nearby. Periodic IRGC military operations.",
    "tier": 2,
    "date": "2022-09-16",
    "showLabel": false,
    "lastUpdated": "2026-04-25"
  },
  {
    "id": "mahabad-kurdish-republic",
    "lon": 45.72,
    "lat": 36.77,
    "cat": "political",
    "label": "Mahabad — Republic of Mahabad (1946)",
    "sub": "Site of the short-lived Soviet-backed Republic of Mahabad (Jan–Dec 1946) — first Kurdish autonomous state. Crushed by Iranian forces after Soviet withdrawal. Kurdish national symbol.",
    "tier": 2,
    "date": "1946-01-22",
    "showLabel": false,
    "lastUpdated": "2026-04-25"
  },
  {
    "id": "zahedan-baluchi-conflict",
    "lon": 60.86,
    "lat": 29.49,
    "cat": "conflict",
    "label": "Zahedan (Sistan-Baluchestan)",
    "sub": "Capital of Iran's most restive province. Jaish al-Adl (Sunni Baluchi militant group) operations. Sept 2022 Bloody Friday: IRGC kills 90+ protesters in mosque shooting.",
    "tier": 2,
    "date": "2022-09-30",
    "showLabel": false,
    "lastUpdated": "2026-04-25"
  },
  {
    "id": "naqsh-e-rostam",
    "lon": 52.87,
    "lat": 30.00,
    "cat": "ancient",
    "label": "Naqsh-e Rostam — Royal Achaemenid Tombs",
    "sub": "Cliff tombs of Darius I, Xerxes I, Artaxerxes I, and Darius II. Sassanid rock reliefs including Shapur I's capture of Roman Emperor Valerian (260 CE). Near Persepolis.",
    "tier": 1,
    "date": "0521-01-01",
    "showLabel": false,
    "lastUpdated": "2026-04-25"
  },
  {
    "id": "evin-prison",
    "lon": 51.32,
    "lat": 35.79,
    "cat": "political",
    "label": "Evin Prison, Tehran",
    "sub": "Iran's most notorious political prison. Houses journalists, activists, dual nationals, and political opponents. Known for torture; Amnesty International and HRW document abuses.",
    "tier": 2,
    "date": "1972-01-01",
    "showLabel": false,
    "lastUpdated": "2026-04-25"
  },
  {
    "id": "isfahan-imam-square",
    "lon": 51.68,
    "lat": 32.66,
    "cat": "ancient",
    "label": "Naqsh-e Jahan Square, Isfahan",
    "sub": "World's second-largest public square (512m × 163m). Built by Shah Abbas I (1598–1629). Imam Mosque, Sheikh Lotfollah Mosque, Ali Qapu Palace. UNESCO World Heritage 1979.",
    "tier": 1,
    "date": "1602-01-01",
    "showLabel": false,
    "lastUpdated": "2026-04-25"
  },
  {
    "id": "faw-peninsula-battlefield",
    "lon": 48.45,
    "lat": 29.97,
    "cat": "conflict",
    "label": "Faw Peninsula — Iran-Iraq War",
    "sub": "Iran captures Faw Peninsula in Operation Dawn 8 (Feb 1986), cutting Iraq from Persian Gulf. Iraq retakes in Operation Ramadan el-Mubarak (April 1988) with chemical weapons and Western intelligence.",
    "tier": 1,
    "date": "1986-02-09",
    "showLabel": false,
    "lastUpdated": "2026-04-25"
  },
  {
    "id": "behistun-inscription",
    "lon": 47.44,
    "lat": 34.39,
    "cat": "ancient",
    "label": "Behistun (Bisotun) Inscription",
    "sub": "Monumental trilingual inscription of Darius I (c. 520 BCE) in Old Persian, Elamite, and Babylonian — key to deciphering cuneiform. UNESCO World Heritage 2006.",
    "tier": 1,
    "date": "0520-01-01",
    "showLabel": false,
    "lastUpdated": "2026-04-25"
  }
]
