[
  {
    "id": "caracas-capital",
    "lon": -66.8791,
    "lat": 10.4806,
    "cat": "political-event",
    "label": "Caracas",
    "sub": "Capital city; seat of Maduro government and opposition National Assembly",
    "tier": 1,
    "date": "1811-07-05",
    "base": true,
    "showLabel": true,
    "lastUpdated": "2026-04-24T00:00:00Z"
  },
  {
    "id": "miraflores-palace",
    "lon": -66.9173,
    "lat": 10.4881,
    "cat": "political-event",
    "label": "Miraflores Palace",
    "sub": "Presidential palace — center of Maduro government, site of April 2002 coup and counter-coup",
    "tier": 1,
    "date": "2002-04-11",
    "showLabel": true,
    "lastUpdated": "2026-04-24T00:00:00Z"
  },
  {
    "id": "maracaibo-oil-hub",
    "lon": -71.6422,
    "lat": 10.6339,
    "cat": "economic",
    "label": "Maracaibo",
    "sub": "Venezuela's oil capital; site of 1922 Barroso II blowout that announced the oil age",
    "tier": 1,
    "date": "1922-12-14",
    "showLabel": true,
    "lastUpdated": "2026-04-24T00:00:00Z"
  },
  {
    "id": "lake-maracaibo",
    "lon": -71.6,
    "lat": 9.8,
    "cat": "economic",
    "label": "Lake Maracaibo",
    "sub": "World's largest oil-producing lake; over 15,000 wells drilled since 1922",
    "tier": 1,
    "date": "1922-12-14",
    "zoneRadius": 80,
    "lastUpdated": "2026-04-24T00:00:00Z"
  },
  {
    "id": "orinoco-belt",
    "lon": -64.5,
    "lat": 8.5,
    "cat": "economic",
    "label": "Orinoco Oil Belt",
    "sub": "World's largest certified oil reserves (~300B barrels); heavily underdeveloped",
    "tier": 1,
    "date": "1998-01-01",
    "zoneRadius": 150,
    "showLabel": true,
    "lastUpdated": "2026-04-24T00:00:00Z"
  },
  {
    "id": "cucuta-border",
    "lon": -72.5078,
    "lat": 7.8939,
    "cat": "humanitarian",
    "label": "Cúcuta Border (Colombia)",
    "sub": "Busiest Venezuela-Colombia crossing; 2019 aid standoff; main emigration corridor",
    "tier": 2,
    "date": "2019-02-23",
    "showLabel": true,
    "lastUpdated": "2026-04-24T00:00:00Z"
  },
  {
    "id": "san-antonio-border",
    "lon": -72.4384,
    "lat": 7.8281,
    "cat": "humanitarian",
    "label": "San Antonio del Táchira",
    "sub": "Venezuelan border town; Tienditas Bridge crossing; humanitarian corridor",
    "tier": 2,
    "date": "2019-02-23",
    "lastUpdated": "2026-04-24T00:00:00Z"
  },
  {
    "id": "valencia-industrial",
    "lon": -68.0087,
    "lat": 10.1628,
    "cat": "economic",
    "label": "Valencia",
    "sub": "Venezuela's industrial heartland; major manufacturing and petrochemical hub",
    "tier": 2,
    "date": "2002-04-12",
    "showLabel": true,
    "lastUpdated": "2026-04-24T00:00:00Z"
  },
  {
    "id": "barquisimeto",
    "lon": -69.3274,
    "lat": 10.0678,
    "cat": "protest",
    "label": "Barquisimeto",
    "sub": "Lara state capital; major center of 2014 and 2017 protest movements",
    "tier": 2,
    "date": "2017-04-19",
    "lastUpdated": "2026-04-24T00:00:00Z"
  },
  {
    "id": "san-cristobal",
    "lon": -72.2251,
    "lat": 7.7667,
    "cat": "protest",
    "label": "San Cristóbal",
    "sub": "Táchira state capital; epicenter of 2014 guarimba protests that spread nationwide",
    "tier": 2,
    "date": "2014-02-04",
    "showLabel": true,
    "lastUpdated": "2026-04-24T00:00:00Z"
  },
  {
    "id": "ciudad-guayana",
    "lon": -62.6469,
    "lat": 8.3674,
    "cat": "economic",
    "label": "Ciudad Guayana",
    "sub": "Heavy industry complex (CVG, SIDOR steel, Alcasa aluminum); production collapsed under Maduro",
    "tier": 2,
    "date": "1976-01-01",
    "lastUpdated": "2026-04-24T00:00:00Z"
  },
  {
    "id": "maturin-anzoategui",
    "lon": -63.1854,
    "lat": 9.7431,
    "cat": "economic",
    "label": "Maturín",
    "sub": "Monagas state capital; gateway to eastern oil fields and the Orinoco Belt",
    "tier": 2,
    "date": "1976-01-01",
    "lastUpdated": "2026-04-24T00:00:00Z"
  },
  {
    "id": "puerto-cabello",
    "lon": -68.0075,
    "lat": 10.4734,
    "cat": "economic",
    "label": "Puerto Cabello",
    "sub": "Main commercial port; PDVSA oil export terminal; military naval base",
    "tier": 2,
    "date": "1821-06-24",
    "lastUpdated": "2026-04-24T00:00:00Z"
  },
  {
    "id": "maiquetia-airport",
    "lon": -66.9908,
    "lat": 10.6011,
    "cat": "political-event",
    "label": "Maiquetía Airport",
    "sub": "Simón Bolívar International Airport; Pérez Jiménez fled here 1958; refugee departures hub",
    "tier": 2,
    "date": "1958-01-23",
    "lastUpdated": "2026-04-24T00:00:00Z"
  },
  {
    "id": "el-helicoide",
    "lon": -66.922,
    "lat": 10.49,
    "cat": "political-event",
    "label": "El Helicoide (SEBIN)",
    "sub": "SEBIN intelligence headquarters and detention center; where political prisoners including Leopoldo López were held",
    "tier": 1,
    "date": "2014-02-18",
    "showLabel": true,
    "lastUpdated": "2026-04-24T00:00:00Z"
  },
  {
    "id": "la-carlota-base",
    "lon": -66.8456,
    "lat": 10.4897,
    "cat": "political-event",
    "label": "La Carlota Air Base",
    "sub": "Caracas military air base; site of Guaidó's failed April 30, 2019 military uprising",
    "tier": 2,
    "date": "2019-04-30",
    "lastUpdated": "2026-04-24T00:00:00Z"
  },
  {
    "id": "sabaneta-barinas",
    "lon": -70.7474,
    "lat": 8.7489,
    "cat": "historical",
    "label": "Sabaneta, Barinas",
    "sub": "Birthplace of Hugo Chávez (July 28, 1954); pilgrimage site for Chavistas",
    "tier": 2,
    "date": "1954-07-28",
    "lastUpdated": "2026-04-24T00:00:00Z"
  },
  {
    "id": "carabobo-battlefield",
    "lon": -68.0838,
    "lat": 10.1441,
    "cat": "historical",
    "label": "Campo de Carabobo",
    "sub": "Site of June 24, 1821 Battle of Carabobo; decisive victory for Venezuelan independence",
    "tier": 1,
    "date": "1821-06-24",
    "showLabel": true,
    "lastUpdated": "2026-04-24T00:00:00Z"
  },
  {
    "id": "angel-falls",
    "lon": -62.5329,
    "lat": 5.9676,
    "cat": "historical",
    "label": "Angel Falls (Salto Ángel)",
    "sub": "World's highest uninterrupted waterfall (979m); Canaima National Park, UNESCO World Heritage Site",
    "tier": 2,
    "date": "1937-11-16",
    "lastUpdated": "2026-04-24T00:00:00Z"
  },
  {
    "id": "tienditas-bridge",
    "lon": -72.4969,
    "lat": 7.8625,
    "cat": "humanitarian",
    "label": "Tienditas Bridge",
    "sub": "Colombia-Venezuela border bridge; blocked by military during Feb 2019 humanitarian aid standoff",
    "tier": 2,
    "date": "2019-02-23",
    "showLabel": true,
    "lastUpdated": "2026-04-24T00:00:00Z"
  },
  {
    "id": "guri-dam",
    "lon": -62.9833,
    "lat": 7.7667,
    "cat": "economic",
    "label": "Guri Dam",
    "sub": "World's third-largest hydroelectric dam; powers ~70% of Venezuela; infrastructure neglect caused 2019 blackout",
    "tier": 1,
    "date": "2019-03-07",
    "showLabel": true,
    "lastUpdated": "2026-04-24T00:00:00Z"
  },
  {
    "id": "ciudad-bolivar",
    "lon": -63.5493,
    "lat": 8.1205,
    "cat": "historical",
    "label": "Ciudad Bolívar (Angostura)",
    "sub": "Site of 1819 Congress of Angostura where Gran Colombia was proclaimed; historic Bolívar stronghold",
    "tier": 2,
    "date": "1819-02-15",
    "lastUpdated": "2026-04-24T00:00:00Z"
  },
  {
    "id": "arco-minero-orinoco",
    "lon": -63.0,
    "lat": 6.8,
    "cat": "economic",
    "label": "Arco Minero del Orinoco",
    "sub": "112,000 km² mining concession zone in Bolívar state opened Feb 2016; gold, coltan, diamonds; linked to environmental destruction, mercury contamination, and violent conflict with indigenous Pemón communities",
    "tier": 1,
    "date": "2016-02-24",
    "zoneRadius": 200,
    "showLabel": true,
    "lastUpdated": "2026-04-25T00:00:00Z"
  },
  {
    "id": "ramo-verde-prison",
    "lon": -67.035,
    "lat": 10.336,
    "cat": "political-event",
    "label": "Ramo Verde Military Prison",
    "sub": "Military detention facility in Los Teques, Miranda state; where Leopoldo López was imprisoned 2014–2017; symbolizes political prisoner abuse under Maduro",
    "tier": 1,
    "date": "2014-02-18",
    "lastUpdated": "2026-04-25T00:00:00Z"
  },
  {
    "id": "paraguana-refinery",
    "lon": -70.22,
    "lat": 11.73,
    "cat": "economic",
    "label": "Paraguaná Refinery Complex",
    "sub": "Amuay and Cardón refineries form one of the world's largest refinery complexes; August 2012 explosion killed 48; capacity severely degraded by 2020 under Maduro's mismanagement",
    "tier": 1,
    "date": "2012-08-25",
    "showLabel": true,
    "lastUpdated": "2026-04-25T00:00:00Z"
  },
  {
    "id": "plaza-altamira-caracas",
    "lon": -66.848,
    "lat": 10.494,
    "cat": "protest",
    "label": "Plaza Altamira (Caracas)",
    "sub": "Chacao municipality square; center of Oct 2002 military dissident protest camp; repeated gathering point for 2014 and 2017 opposition marches",
    "tier": 2,
    "date": "2002-10-22",
    "lastUpdated": "2026-04-25T00:00:00Z"
  },
  {
    "id": "santa-elena-brazil-border",
    "lon": -61.12,
    "lat": 4.6,
    "cat": "humanitarian",
    "label": "Santa Elena de Uairén (Brazil Border)",
    "sub": "Venezuela–Brazil border crossing in Gran Sabana; secondary emigration corridor for Venezuelans traveling to Brazil, Argentina, and beyond",
    "tier": 2,
    "date": "2018-01-01",
    "lastUpdated": "2026-04-25T00:00:00Z"
  },
  {
    "id": "el-amparo-apure-border",
    "lon": -70.76,
    "lat": 7.07,
    "cat": "humanitarian",
    "label": "El Amparo (Apure–Colombia Border)",
    "sub": "Apure state border area; site of 1988 El Amparo massacre (16 fishermen killed by security forces) and ongoing FARC/ELN guerrilla presence along the Colombia border",
    "tier": 2,
    "date": "1988-10-29",
    "lastUpdated": "2026-04-25T00:00:00Z"
  },
  {
    "id": "maracay-military-hub",
    "lon": -67.59,
    "lat": 10.24,
    "cat": "political-event",
    "label": "Maracay",
    "sub": "Aragua state capital and Venezuela's key military city; home to major air bases (La Pica, Libertador) and Army command; Hugo Chávez served here as military officer before his 1992 coup attempt",
    "tier": 2,
    "date": "1992-02-04",
    "lastUpdated": "2026-04-25T00:00:00Z"
  },
  {
    "id": "23-de-enero-barrio",
    "lon": -66.935,
    "lat": 10.51,
    "cat": "protest",
    "label": "23 de Enero (Caracas)",
    "sub": "Historic Caracas barrio named for January 23, 1958 (fall of Pérez Jiménez); traditional Chavista stronghold; home to armed colectivos who enforced pro-government control during 2019 protests",
    "tier": 2,
    "date": "1958-01-23",
    "lastUpdated": "2026-04-25T00:00:00Z"
  }
]
