[
  {
    "id": "naypyidaw-junta-capital",
    "lon": 96.13,
    "lat": 19.75,
    "cat": "territorial",
    "label": "Naypyidaw",
    "sub": "SAC Junta Capital — Military administrative center; site of SAC command; largely isolated from conflict",
    "tier": 1,
    "date": "2021-02-01",
    "base": true,
    "showLabel": true,
    "lastUpdated": "2026-03-20"
  },
  {
    "id": "yangon-cdm-center",
    "lon": 96.16,
    "lat": 16.87,
    "cat": "humanitarian",
    "label": "Yangon",
    "sub": "Myanmar's largest city — CDM epicenter 2021; mass protests; continued SAC control; economic deterioration",
    "tier": 2,
    "date": "2021-02-06",
    "showLabel": true,
    "lastUpdated": "2026-03-20"
  },
  {
    "id": "mandalay-frontline",
    "lon": 96.08,
    "lat": 21.98,
    "cat": "frontline",
    "label": "Mandalay",
    "sub": "Myanmar's second city — Earthquake devastation (Mar 2025); PDF pressure in surrounding townships; SAC still holds city center",
    "tier": 2,
    "date": "2025-03-28",
    "showLabel": true,
    "lastUpdated": "2026-03-20"
  },
  {
    "id": "lashio-n-shan-capital",
    "lon": 97.75,
    "lat": 22.93,
    "cat": "territorial",
    "label": "Lashio",
    "sub": "Northern Shan State capital — Captured by MNDAA/TNLA Aug 2024; first Regional Military Command HQ lost by junta",
    "tier": 2,
    "date": "2024-08-03",
    "showLabel": true,
    "lastUpdated": "2026-03-20"
  },
  {
    "id": "laukkai-kokang",
    "lon": 99.47,
    "lat": 23.78,
    "cat": "territorial",
    "label": "Laukkai",
    "sub": "Kokang capital — Captured by MNDAA Jan 5, 2024; thousands of online scam compound victims freed",
    "tier": 2,
    "date": "2024-01-05",
    "lastUpdated": "2026-03-20"
  },
  {
    "id": "chin-shwe-haw-border",
    "lon": 98.73,
    "lat": 23.56,
    "cat": "territorial",
    "label": "Chin Shwe Haw",
    "sub": "Strategic Myanmar-China border crossing — Captured by MNDAA Nov 2023; cut SAC border revenue and supply routes",
    "tier": 2,
    "date": "2023-11-15",
    "lastUpdated": "2026-03-20"
  },
  {
    "id": "sittwe-contested",
    "lon": 92.90,
    "lat": 20.15,
    "cat": "frontline",
    "label": "Sittwe",
    "sub": "Rakhine State capital — Under AA siege; one of last SAC holdouts in Rakhine; humanitarian crisis for trapped civilians",
    "tier": 2,
    "date": "2024-12-01",
    "showLabel": true,
    "lastUpdated": "2026-03-20"
  },
  {
    "id": "myitkyina-kachin",
    "lon": 97.40,
    "lat": 25.38,
    "cat": "frontline",
    "label": "Myitkyina",
    "sub": "Kachin State capital — KIA pressing SAC outskirts; SAC increasingly isolated; major humanitarian crisis in region",
    "tier": 2,
    "date": "2023-03-01",
    "showLabel": true,
    "lastUpdated": "2026-03-20"
  },
  {
    "id": "loikaw-kayah-capital",
    "lon": 97.21,
    "lat": 19.68,
    "cat": "frontline",
    "label": "Loikaw",
    "sub": "Kayah State capital — Karenni forces have partially surrounded city; SAC relies on airlifts; civilians trapped",
    "tier": 2,
    "date": "2023-06-01",
    "lastUpdated": "2026-03-20"
  },
  {
    "id": "myawaddy-karen-border",
    "lon": 98.50,
    "lat": 16.68,
    "cat": "frontline",
    "label": "Myawaddy",
    "sub": "Karen State border town — KNLA briefly captured Apr 2024; strategic trade corridor with Thailand; contested",
    "tier": 2,
    "date": "2024-04-11",
    "lastUpdated": "2026-03-20"
  },
  {
    "id": "hpa-an-karen-state",
    "lon": 97.63,
    "lat": 16.90,
    "cat": "frontline",
    "label": "Hpa-An",
    "sub": "Karen State capital — KNU/KNLA operations in surrounding areas; SAC under pressure; active frontlines nearby",
    "tier": 2,
    "date": "2022-01-01",
    "lastUpdated": "2026-03-20"
  },
  {
    "id": "ann-township-rakhine",
    "lon": 93.96,
    "lat": 19.66,
    "cat": "territorial",
    "label": "Ann Township",
    "sub": "Former Western Regional Military Command HQ — Captured by AA Dec 20, 2024; devastating strategic loss for junta",
    "tier": 2,
    "date": "2024-12-20",
    "lastUpdated": "2026-03-20"
  },
  {
    "id": "maungdaw-bangladesh-border",
    "lon": 92.37,
    "lat": 20.82,
    "cat": "territorial",
    "label": "Maungdaw",
    "sub": "Northern Rakhine — Captured by AA Dec 2024; AA now controls full 270-km Bangladesh border; Rohingya crisis epicenter",
    "tier": 2,
    "date": "2024-12-08",
    "lastUpdated": "2026-03-20"
  },
  {
    "id": "mrauk-u-rakhine",
    "lon": 93.20,
    "lat": 20.59,
    "cat": "territorial",
    "label": "Mrauk-U",
    "sub": "Ancient Rakhine capital — AA captured entire district by Feb 2024; UNESCO heritage sites at risk during conflict",
    "tier": 2,
    "date": "2024-02-06",
    "lastUpdated": "2026-03-20"
  },
  {
    "id": "paletwa-chin-state",
    "lon": 93.03,
    "lat": 21.59,
    "cat": "territorial",
    "label": "Paletwa",
    "sub": "Chin State — AA captured Jan 2024; controls Kaladan River corridor linking to India's transit project",
    "tier": 2,
    "date": "2024-01-15",
    "lastUpdated": "2026-03-20"
  },
  {
    "id": "sagaing-township",
    "lon": 95.98,
    "lat": 21.88,
    "cat": "humanitarian",
    "label": "Sagaing Region",
    "sub": "PDF heartland — Most villages burned campaign; highest number of airstrike incidents; over 800 villages burned by SAC",
    "tier": 2,
    "date": "2022-01-01",
    "zoneRadius": 80,
    "lastUpdated": "2026-03-20"
  },
  {
    "id": "kalay-sagaing",
    "lon": 94.08,
    "lat": 23.21,
    "cat": "resistance",
    "label": "Kalay",
    "sub": "Sagaing Region — Chin-Sagaing border PDF stronghold; major PDF operations base; CDF and Sagaing PDF cooperation",
    "tier": 2,
    "date": "2021-10-01",
    "lastUpdated": "2026-03-20"
  },
  {
    "id": "hakha-chin-capital",
    "lon": 93.62,
    "lat": 22.64,
    "cat": "resistance",
    "label": "Hakha",
    "sub": "Chin State capital — CDF controls surrounding areas; SAC garrison largely isolated; active resistance operations",
    "tier": 2,
    "date": "2021-05-01",
    "lastUpdated": "2026-03-20"
  },
  {
    "id": "depayin-concert-site",
    "lon": 95.50,
    "lat": 23.00,
    "cat": "junta-operation",
    "label": "Depayin (Kanbalu)",
    "sub": "SAC airstrike Oct 23, 2022 — Bombed charity concert killing 80+ civilians; one of deadliest single air attacks",
    "tier": 2,
    "date": "2022-10-23",
    "lastUpdated": "2026-03-20"
  },
  {
    "id": "pazigyi-airstrike-site",
    "lon": 95.73,
    "lat": 22.78,
    "cat": "junta-operation",
    "label": "Pazigyi Village",
    "sub": "SAC airstrike Apr 11, 2023 — 170+ killed at inauguration ceremony; UN Special Rapporteur called it 'act of pure terror'",
    "tier": 1,
    "date": "2023-04-11",
    "lastUpdated": "2026-03-20"
  },
  {
    "id": "hpruso-massacre-site",
    "lon": 97.43,
    "lat": 19.19,
    "cat": "junta-operation",
    "label": "Hpruso",
    "sub": "Christmas Eve Massacre Dec 24, 2021 — SAC forces burned 35+ civilians alive in vehicles; HRW documented as war crime",
    "tier": 2,
    "date": "2021-12-24",
    "lastUpdated": "2026-03-20"
  },
  {
    "id": "lay-kay-kaw-knu",
    "lon": 98.31,
    "lat": 16.35,
    "cat": "resistance",
    "label": "Lay Kay Kaw",
    "sub": "KNU liberated zone — Model resistance-administered town near Thai border; KNU provides civil governance and services",
    "tier": 2,
    "date": "2021-06-01",
    "lastUpdated": "2026-03-20"
  },
  {
    "id": "mong-ko-shan",
    "lon": 98.47,
    "lat": 23.52,
    "cat": "territorial",
    "label": "Mong Ko",
    "sub": "Northern Shan — Captured by MNDAA in early days of Op 1027; strategic border town controlling trade routes",
    "tier": 2,
    "date": "2023-10-28",
    "lastUpdated": "2026-03-20"
  },
  {
    "id": "taunggyi-shan-capital",
    "lon": 97.04,
    "lat": 20.79,
    "cat": "frontline",
    "label": "Taunggyi",
    "sub": "Southern Shan State capital — SAC holdout but under pressure from RCSS/SSA and PDF forces in surrounding townships",
    "tier": 2,
    "date": "2023-01-01",
    "lastUpdated": "2026-03-20"
  },
  {
    "id": "kyaukpyu-rakhine-port",
    "lon": 93.55,
    "lat": 19.44,
    "cat": "frontline",
    "label": "Kyaukpyu",
    "sub": "Chinese-backed deep-sea port — One of last SAC holdouts in Rakhine; China concerned about project security; AA surrounds",
    "tier": 2,
    "date": "2024-06-01",
    "lastUpdated": "2026-03-20"
  },
  {
    "id": "taungup-rakhine",
    "lon": 94.23,
    "lat": 18.92,
    "cat": "territorial",
    "label": "Taungup",
    "sub": "Southern Rakhine — AA captured after 42-day siege Dec 2024; falls on key highway connecting Rakhine to Bago Region",
    "tier": 2,
    "date": "2024-12-13",
    "lastUpdated": "2026-03-20"
  },
  {
    "id": "demoso-kayah",
    "lon": 97.38,
    "lat": 19.46,
    "cat": "resistance",
    "label": "Demoso",
    "sub": "Kayah State — Karenni resistance stronghold; KNDF/KA base; heavy SAC bombing of civilian areas documented",
    "tier": 2,
    "date": "2021-07-01",
    "lastUpdated": "2026-03-20"
  },
  {
    "id": "bago-crackdown",
    "lon": 96.48,
    "lat": 17.34,
    "cat": "junta-operation",
    "label": "Bago",
    "sub": "Bago Region — Apr 9, 2021 massacre: SAC killed 80+ protesters; one of bloodiest single-day protests crackdowns",
    "tier": 2,
    "date": "2021-04-09",
    "lastUpdated": "2026-03-20"
  },
  {
    "id": "let-yet-kone-camp",
    "lon": 97.38,
    "lat": 25.35,
    "cat": "junta-operation",
    "label": "Let Yet Kone",
    "sub": "Kachin State — Apr 2022 airstrike on school/IDP camp killed 60+ civilians; UN called for accountability",
    "tier": 2,
    "date": "2022-04-11",
    "lastUpdated": "2026-03-20"
  },
  {
    "id": "muse-shan-border",
    "lon": 97.98,
    "lat": 23.97,
    "cat": "frontline",
    "label": "Muse",
    "sub": "Northern Shan — Major China trade gateway; contested; Operation 1027 threatened key Muse-Mandalay highway trade",
    "tier": 2,
    "date": "2023-10-27",
    "lastUpdated": "2026-03-20"
  },
  {
    "id": "shwe-min-gan-naval-base",
    "lon": 92.87,
    "lat": 20.16,
    "cat": "frontline",
    "label": "Shwe Min Gan Naval Base",
    "sub": "Sittwe, Rakhine — AA assault launched Mar 23, 2026; 30–40 junta troops killed; AA fighters advanced to within 2 km of Sittwe city center",
    "tier": 2,
    "date": "2026-03-23",
    "lastUpdated": "2026-03-29"
  },
  {
    "id": "magway-airbase",
    "lon": 94.93,
    "lat": 20.16,
    "cat": "junta-operation",
    "label": "Magway Air Base",
    "sub": "Magway Region — Primary SAC airstrike hub for Upper Myanmar; targeted by BWM/NMD-PDF rocket attack (11 x 107mm rounds) Mar 25, 2026",
    "tier": 2,
    "date": "2026-03-25",
    "lastUpdated": "2026-03-29"
  },
  {
    "id": "ayardaw-township-airstrike",
    "lon": 95.22,
    "lat": 22.31,
    "cat": "junta-operation",
    "label": "Ayardaw Township",
    "sub": "Sagaing Region — SAC jets killed 6+ civilians in March 22, 2026 airstrikes; part of surge killing 27+ Sagaing civilians in 3 days",
    "tier": 2,
    "date": "2026-03-22",
    "lastUpdated": "2026-03-29"
  },
  {
    "id": "padan-township-magway",
    "lon": 94.58,
    "lat": 21.12,
    "cat": "resistance",
    "label": "Padan Township",
    "sub": "Magway Region — AA and resistance attacked junta Nat Yay Kan hilltop base Mar 29, 2026; junta responded with artillery and airstrikes on nearby villages",
    "tier": 2,
    "date": "2026-03-29",
    "lastUpdated": "2026-03-29"
  },
  {
    "id": "butalin-township-airstrike-mar30",
    "lon": 95.55,
    "lat": 22.15,
    "cat": "junta-operation",
    "label": "Butalin Township",
    "sub": "Sagaing Region — 3 SAC jets killed ~10 civilians in Ngapayin village Mar 30, 2026; 4 bombs + rockets over 75 minutes; no resistance presence reported",
    "tier": 2,
    "date": "2026-03-30",
    "lastUpdated": "2026-04-01"
  },
  {
    "id": "hpakant-kia-ops-apr2026",
    "lon": 96.02,
    "lat": 25.93,
    "cat": "resistance",
    "label": "Hpakant Township",
    "sub": "Kachin State jade-mining heartland — KIA captured 6 SAC frontline positions near Maw Wan Gyi on Apr 2, 2026; ongoing KIA offensive threatening SAC junta control and jade revenue",
    "tier": 3,
    "date": "2026-04-02",
    "lastUpdated": "2026-04-06"
  },
  {
    "id": "myaing-pauk-oilfield-airstrike-apr4",
    "lon": 94.45,
    "lat": 21.49,
    "cat": "junta-operation",
    "label": "Myaing–Pauk Oil Fields",
    "sub": "Magway Region — SAC jets killed 5 PDF fighters on Apr 4, 2026 after PDF surrounded junta-controlled oil fields; junta using air power to defend petroleum assets",
    "tier": 3,
    "date": "2026-04-04",
    "lastUpdated": "2026-04-06"
  },
  {
    "id": "kani-township-resistance",
    "lon": 94.60,
    "lat": 22.62,
    "cat": "resistance",
    "label": "Kani Township",
    "sub": "Sagaing Region — Active PDF stronghold; sustained resistance ambushes on SAC convoys and positions; Apr 5, 2026 clashes part of ongoing campaign; 17+ SAC troops killed Apr 5–6",
    "tier": 3,
    "date": "2026-04-05",
    "lastUpdated": "2026-04-06"
  },
  {
    "id": "natmauk-township-magway",
    "lon": 95.42,
    "lat": 20.43,
    "cat": "resistance",
    "label": "Natmauk Township",
    "sub": "Magway Region — PDF expanding from Sagaing heartland into Magway; Apr 5, 2026 resistance clashes killed multiple SAC troops in coordination with Kani Township operations",
    "tier": 3,
    "date": "2026-04-05",
    "lastUpdated": "2026-04-06"
  },
  {
    "id": "shwebo-idp-camp-airstrike-apr7",
    "lon": 95.70,
    "lat": 22.57,
    "cat": "junta-operation",
    "label": "Shwebo Township",
    "sub": "Sagaing Region — SAC jets conducted 7 bombing runs on IDP displacement camp Apr 7, 2026; monk teaching displaced children killed; 2 women severely injured",
    "tier": 3,
    "date": "2026-04-07",
    "lastUpdated": "2026-04-09"
  },
  {
    "id": "wuntho-township-airstrike-apr9",
    "lon": 95.77,
    "lat": 23.55,
    "cat": "junta-operation",
    "label": "Wuntho Township",
    "sub": "Northern Sagaing Region — SAC airstrikes on villages Apr 9, 2026; part of near-daily aerial campaign across Sagaing while junta chief prepared for 'civilian' inauguration",
    "tier": 3,
    "date": "2026-04-09",
    "lastUpdated": "2026-04-09"
  },
  {
    "id": "ye-township-mon-state-ambush",
    "lon": 97.86,
    "lat": 15.26,
    "cat": "resistance",
    "label": "Ye Township",
    "sub": "Southern Mon State — PDF ambush Apr 7, 2026 killed 1 SAC officer + 2 soldiers; Ramanya Mon Army also attacked SAC in adjacent Mudon Township same day",
    "tier": 3,
    "date": "2026-04-07",
    "lastUpdated": "2026-04-09"
  },
  {
    "id": "minbu-saku-sustained-fighting-magway",
    "lon": 94.82,
    "lat": 20.25,
    "cat": "frontline",
    "label": "Minbu-Saku Area",
    "sub": "Magway Region — 6+ days of sustained resistance vs. SAC combat as of Apr 7, 2026; school bombed; resistance claims 10+ SAC troops injured; part of PDF push south from Sagaing",
    "tier": 3,
    "date": "2026-04-07",
    "lastUpdated": "2026-04-09"
  },
  {
    "id": "launglon-tanintharyi-resistance",
    "lon": 98.22,
    "lat": 13.74,
    "cat": "resistance",
    "label": "Launglon",
    "sub": "Tanintharyi Region — Launglone Steel Butterfly Force drone strike on junta police station Apr 10, 2026: 2 killed, 7 seriously injured; southern resistance expanding precision drone operations",
    "tier": 3,
    "date": "2026-04-10",
    "lastUpdated": "2026-04-12"
  },
  {
    "id": "bilin-township-mon-frontline",
    "lon": 97.22,
    "lat": 17.31,
    "cat": "frontline",
    "label": "Bilin Township",
    "sub": "Mon State — Sustained SAC airstrikes Apr 7-11, 2026: ~40 bombs dropped on Lay Kay, Win Ta Pan, and Myit Kyo village tracts; telecom towers destroyed; resistance besieging Laykay base and Wintarpan military camp",
    "tier": 2,
    "date": "2026-04-07",
    "lastUpdated": "2026-04-12"
  },
  {
    "id": "chaungkan-pale-sagaing-murders",
    "lon": 95.11,
    "lat": 22.08,
    "cat": "junta-operation",
    "label": "Chaungkan Village (Pale Township)",
    "sub": "Sagaing Region — Three civilians found tortured and executed Apr 12, 2026 after being abducted as human shields during SAC operations; evidence of torture, gunshot wounds, decapitation",
    "tier": 3,
    "date": "2026-04-12",
    "lastUpdated": "2026-04-12"
  },
  {
    "id": "seik-hkun-monastery-airstrike-apr13",
    "lon": 95.45,
    "lat": 22.45,
    "cat": "junta-operation",
    "label": "Seik Hkun Monastery (W. Shwebo)",
    "sub": "Sagaing Region — SAC jets bombed monastery on Thingyan eve Apr 13, 2026: 2 monks killed, 8 novice monks injured; dormitories, wells, and school destroyed",
    "tier": 2,
    "date": "2026-04-13",
    "lastUpdated": "2026-04-18"
  },
  {
    "id": "salingyi-yinmabin-gyrocopter-apr13",
    "lon": 95.15,
    "lat": 22.10,
    "cat": "junta-operation",
    "label": "Salingyi / Yinmabin (Sagaing)",
    "sub": "Sagaing Region — SAC gyrocopter attacks killed 1 infant (Weikwe village, Salingyi Twp) and 1 girl age 14 (Leingnaut village, Yinmabin Twp) on Thingyan eve Apr 13, 2026",
    "tier": 3,
    "date": "2026-04-13",
    "lastUpdated": "2026-04-18"
  },
  {
    "id": "north-lukan-pakokku-burning-apr13",
    "lon": 95.05,
    "lat": 21.33,
    "cat": "junta-operation",
    "label": "North Lukan Village (Pakokku)",
    "sub": "Magway Region — SAC forces burned ~200 homes on Thingyan eve Apr 13, 2026; ~5 miles from Pakokku airfield; residents had evacuated before burning",
    "tier": 3,
    "date": "2026-04-13",
    "lastUpdated": "2026-04-18"
  },
  {
    "id": "pauk-township-thingyan-airstrike-apr17",
    "lon": 94.45,
    "lat": 21.45,
    "cat": "junta-operation",
    "label": "Pauk Township (Magway)",
    "sub": "Magway Region — SAC airstrikes during Myanmar New Year (Apr 17, 2026) killed 6 civilians in Pauk Township and adjacent Luthaw area; SAC maintained operations through entire Thingyan holiday",
    "tier": 3,
    "date": "2026-04-17",
    "lastUpdated": "2026-04-18"
  }
]
