[
  {
    "id": "member-brazil",
    "lon": -47.93,
    "lat": -15.78,
    "cat": "member",
    "label": "Brasília",
    "sub": "Brazil — founding BRICS member (2009); 2025 BRICS Chair",
    "tier": 1,
    "date": "2009-06-16",
    "base": true,
    "showLabel": true,
    "lastUpdated": "2026-04-25T00:00:00Z"
  },
  {
    "id": "member-russia",
    "lon": 37.62,
    "lat": 55.75,
    "cat": "member",
    "label": "Moscow",
    "sub": "Russia — founding BRICS member (2009); hosted 2020 (virtual) and 2024 Kazan summits",
    "tier": 1,
    "date": "2009-06-16",
    "base": true,
    "showLabel": true,
    "lastUpdated": "2026-04-25T00:00:00Z"
  },
  {
    "id": "member-india",
    "lon": 77.21,
    "lat": 28.61,
    "cat": "member",
    "label": "New Delhi",
    "sub": "India — founding BRICS member (2009); 2021 and 2026 BRICS Chair",
    "tier": 1,
    "date": "2009-06-16",
    "base": true,
    "showLabel": true,
    "lastUpdated": "2026-04-25T00:00:00Z"
  },
  {
    "id": "member-china",
    "lon": 116.39,
    "lat": 39.91,
    "cat": "member",
    "label": "Beijing",
    "sub": "China — founding BRICS member (2009); largest economy in bloc by PPP; NDB headquarters in Shanghai",
    "tier": 1,
    "date": "2009-06-16",
    "base": true,
    "showLabel": true,
    "lastUpdated": "2026-04-25T00:00:00Z"
  },
  {
    "id": "member-south-africa",
    "lon": 28.03,
    "lat": -26.20,
    "cat": "member",
    "label": "Johannesburg",
    "sub": "South Africa — joined Dec 2010 (effective 2011); hosted 2013 and 2023 expansion summits",
    "tier": 1,
    "date": "2011-04-14",
    "base": true,
    "showLabel": true,
    "lastUpdated": "2026-04-25T00:00:00Z"
  },
  {
    "id": "member-egypt",
    "lon": 31.24,
    "lat": 30.04,
    "cat": "member",
    "label": "Cairo",
    "sub": "Egypt — joined BRICS Jan 1, 2024; brings Suez Canal and regional Arab influence",
    "tier": 1,
    "date": "2024-01-01",
    "showLabel": true,
    "lastUpdated": "2026-04-25T00:00:00Z"
  },
  {
    "id": "member-ethiopia",
    "lon": 38.74,
    "lat": 9.03,
    "cat": "member",
    "label": "Addis Ababa",
    "sub": "Ethiopia — joined BRICS Jan 1, 2024; sub-Saharan Africa's second-largest economy",
    "tier": 1,
    "date": "2024-01-01",
    "showLabel": true,
    "lastUpdated": "2026-04-25T00:00:00Z"
  },
  {
    "id": "member-iran",
    "lon": 51.39,
    "lat": 35.69,
    "cat": "member",
    "label": "Tehran",
    "sub": "Iran — joined BRICS Jan 1, 2024 under international sanctions; most geopolitically contentious new member",
    "tier": 1,
    "date": "2024-01-01",
    "showLabel": true,
    "lastUpdated": "2026-04-25T00:00:00Z"
  },
  {
    "id": "member-uae",
    "lon": 54.37,
    "lat": 24.45,
    "cat": "member",
    "label": "Abu Dhabi",
    "sub": "UAE — joined BRICS Jan 1, 2024; major global trade and financial hub bridging East and West",
    "tier": 1,
    "date": "2024-01-01",
    "showLabel": true,
    "lastUpdated": "2026-04-25T00:00:00Z"
  },
  {
    "id": "member-indonesia",
    "lon": 106.83,
    "lat": -6.21,
    "cat": "member",
    "label": "Jakarta",
    "sub": "Indonesia — joined BRICS Jan 7, 2025; first Southeast Asian member; world's 4th-largest population",
    "tier": 1,
    "date": "2025-01-07",
    "showLabel": true,
    "lastUpdated": "2026-04-25T00:00:00Z"
  },
  {
    "id": "summit-yekaterinburg-2009",
    "lon": 60.61,
    "lat": 56.85,
    "cat": "summit",
    "label": "Yekaterinburg",
    "sub": "1st BRIC Summit — June 16, 2009; inaugural meeting of Brazil, Russia, India, China",
    "tier": 1,
    "date": "2009-06-16",
    "lastUpdated": "2026-04-25T00:00:00Z"
  },
  {
    "id": "summit-sanya-2011",
    "lon": 109.51,
    "lat": 18.25,
    "cat": "summit",
    "label": "Sanya",
    "sub": "3rd BRICS Summit — April 2011; first summit including South Africa; BRICS name adopted",
    "tier": 1,
    "date": "2011-04-14",
    "lastUpdated": "2026-04-25T00:00:00Z"
  },
  {
    "id": "summit-fortaleza-2014",
    "lon": -38.52,
    "lat": -3.72,
    "cat": "summit",
    "label": "Fortaleza",
    "sub": "6th BRICS Summit — July 2014; New Development Bank and CRA founded",
    "tier": 1,
    "date": "2014-07-15",
    "lastUpdated": "2026-04-25T00:00:00Z"
  },
  {
    "id": "summit-ufa-2015",
    "lon": 55.96,
    "lat": 54.74,
    "cat": "summit",
    "label": "Ufa",
    "sub": "7th BRICS Summit — July 2015; NDB formally opened; Russia chaired amid post-Crimea sanctions",
    "tier": 1,
    "date": "2015-07-09",
    "lastUpdated": "2026-04-25T00:00:00Z"
  },
  {
    "id": "summit-xiamen-2017",
    "lon": 118.09,
    "lat": 24.48,
    "cat": "summit",
    "label": "Xiamen",
    "sub": "9th BRICS Summit — Sep 2017; 'BRICS Plus' concept launched; first RMB-denominated NDB bond",
    "tier": 1,
    "date": "2017-09-03",
    "lastUpdated": "2026-04-25T00:00:00Z"
  },
  {
    "id": "summit-kazan-2024",
    "lon": 49.11,
    "lat": 55.79,
    "cat": "summit",
    "label": "Kazan",
    "sub": "16th BRICS Summit — Oct 2024; 13 partner countries admitted; largest diplomatic event in Russia since 2022",
    "tier": 1,
    "date": "2024-10-22",
    "lastUpdated": "2026-04-25T00:00:00Z"
  },
  {
    "id": "summit-rio-2025",
    "lon": -43.17,
    "lat": -22.91,
    "cat": "summit",
    "label": "Rio de Janeiro",
    "sub": "17th BRICS Summit — July 6-7, 2025; AI governance declaration and Global South reform agenda",
    "tier": 1,
    "date": "2025-07-06",
    "lastUpdated": "2026-04-25T00:00:00Z"
  },
  {
    "id": "institution-ndb-shanghai",
    "lon": 121.47,
    "lat": 31.23,
    "cat": "institution",
    "label": "NDB Shanghai",
    "sub": "New Development Bank HQ — opened Jul 2015; $35.7B+ approved; ~28% local currency lending",
    "tier": 1,
    "date": "2015-07-21",
    "base": true,
    "showLabel": true,
    "lastUpdated": "2026-04-25T00:00:00Z"
  },
  {
    "id": "partner-saudi-riyadh",
    "lon": 46.68,
    "lat": 24.68,
    "cat": "partner",
    "label": "Riyadh",
    "sub": "Saudi Arabia — invited to join BRICS Aug 2023; froze membership bid late 2024; hedging between BRICS and US ties",
    "tier": 2,
    "date": "2023-08-24",
    "lastUpdated": "2026-04-25T00:00:00Z"
  },
  {
    "id": "partner-turkey-ankara",
    "lon": 32.87,
    "lat": 39.93,
    "cat": "partner",
    "label": "Ankara",
    "sub": "Turkey — admitted as BRICS Partner Country at Kazan Oct 2024; NATO member seeking multi-vector diplomacy",
    "tier": 2,
    "date": "2024-10-24",
    "lastUpdated": "2026-04-25T00:00:00Z"
  }
]
